Time,PosX,PosY,PosZ,Altitude,VelX,VelY,VelZ,AccX,AccY,AccZ,AccGX,AccGY,AccGZ,Roll,Pitch,Yaw,GyroX,GyroY,GyroZ,AngularAccX,AngularAccY,AngularAccZ,YTVC,ZTVC,PitchSetpoint,YawSetpoint,Apogee
0.0,-0.00014,0.00015,-0.00067,0.00067,-0.01447,0.01453,-0.06733,0.0,0.0,-16.66667,-1.44707,1.45259,-6.73306,-0.0,5.0,5.0,0.0,0.0,0.0,0.0,0.0,0.0,-0.0,-0.0,0.0,0.0,0.0
0.01,-0.00043,0.00044,-0.00202,0.00202,-0.02894,0.02905,-0.13466,0.0,0.0,-16.66667,-1.44707,1.45259,-6.73306,-0.0,5.0,5.0,0.0,0.0,0.0,0.0,0.0,0.0,0.45,0.45,0.0,0.0,0.0
0.02,-0.00087,0.00087,-0.00404,0.00404,-0.04341,0.04358,-0.20199,0.0,0.0,-16.66667,-1.44707,1.45259,-6.73306,-0.0,5.0,5.0,0.0,0.0,0.0,0.0,0.0,0.0,0.9,0.9,0.0,0.0,0.0
0.03,-0.00145,0.00145,-0.00673,0.00673,-0.05788,0.0581,-0.26932,0.0,0.0,-16.66667,-1.44707,1.45259,-6.73306,-0.0,5.0,5.0,0.0,0.0,0.0,0.0,0.0,0.0,1.25,1.25,0.0,0.0,0.01
0.04,-0.00217,0.00218,-0.0101,0.0101,-0.07235,0.07263,-0.33665,0.0,0.0,-16.66667,-1.44707,1.45259,-6.73306,-0.0,5.0,5.0,0.0,0.0,0.0,0.0,0.0,0.0,1.25,1.25,0.0,0.0,0.01
0.05,-0.00304,0.00305,-0.01414,0.01414,-0.08682,0.08716,-0.40398,0.0,0.0,-16.66667,-1.44707,1.45259,-6.73306,-0.0,5.0,5.0,0.0,0.0,0.0,0.0,0.0,0.0,1.25,1.25,0.0,0.0,0.01
0.06,-0.00405,0.00407,-0.01885,0.01885,-0.10129,0.10168,-0.47131,0.0,0.0,-16.66667,-1.44707,1.45259,-6.73306,-0.0,5.0,5.0,0.0,0.0,0.0,0.0,0.0,0.0,1.25,1.25,0.0,0.0,0.02
0.07,-0.00521,0.00523,-0.02424,0.02424,-0.11577,0.11621,-0.53865,0.0,0.0,-16.66667,-1.44707,1.45259,-6.73306,-0.0,5.0,5.0,0.0,0.0,0.0,0.0,0.0,0.0,1.25,1.25,0.0,0.0,0.02
0.08,-0.00651,0.00654,-0.0303,0.0303,-0.13024,0.13073,-0.60598,0.0,0.0,-16.66667,-1.44707,1.45259,-6.73306,-0.0,5.0,5.0,0.0,0.0,0.0,0.0,0.0,0.0,1.25,1.25,0.0,0.0,0.03
0.09,-0.00796,0.00799,-0.03703,0.03703,-0.14471,0.14526,-0.67331,0.0,0.0,-16.66667,-1.44707,1.45259,-6.73306,-0.0,5.0,5.0,0.0,0.0,0.0,0.0,0.0,0.0,1.25,1.25,0.0,0.0,0.04
0.1,-0.00955,0.00959,-0.04444,0.04444,-0.15918,0.15979,-0.74064,0.0,0.0,-16.66667,-1.44707,1.45259,-6.73306,-0.0,5.0,5.0,0.0,0.0,0.0,0.0,0.0,0.0,1.25,1.25,0.0,0.0,0.04
0.11,-0.01129,0.01133,-0.05252,0.05252,-0.17365,0.17431,-0.80797,0.0,0.0,-16.66667,-1.44707,1.45259,-6.73306,-0.0,5.0,5.0,0.0,0.0,0.0,0.0,0.0,0.0,1.25,1.25,0.0,0.0,0.05
0.12,-0.01317,0.01322,-0.06127,0.06127,-0.18812,0.18884,-0.8753,0.0,0.0,-16.66667,-1.44707,1.45259,-6.73306,-0.0,5.0,5.0,0.0,0.0,0.0,0.0,0.0,0.0,1.25,1.25,0.0,0.0,0.06
0.13,-0.01519,0.01525,-0.0707,0.0707,-0.20259,0.20336,-0.94263,0.0,0.0,-16.66667,-1.44707,1.45259,-6.73306,-0.0,5.0,5.0,0.0,0.0,0.0,0.0,0.0,0.0,1.25,1.25,0.0,0.0,0.07
0.14,-0.01736,0.01743,-0.0808,0.0808,-0.21706,0.21789,-1.00996,0.0,0.0,-16.66667,-1.44707,1.45259,-6.73306,-0.0,5.0,5.0,0.0,0.0,0.0,0.0,0.0,0.0,1.25,1.25,0.0,0.0,0.08
0.15,-0.01968,0.01976,-0.09157,0.09157,-0.23153,0.23242,-1.07729,0.0,0.0,-16.66667,-1.44707,1.45259,-6.73306,-0.0,5.0,5.0,0.0,0.0,0.0,0.0,0.0,0.0,1.25,1.25,0.0,0.0,0.09
0.16,-0.02214,0.02222,-0.10302,0.10302,-0.246,0.24694,-1.14462,0.0,0.0,-16.66667,-1.44707,1.45259,-6.73306,-0.0,5.0,5.0,0.0,0.0,0.0,0.0,0.0,0.0,1.25,1.25,0.0,0.0,0.1
0.17,-0.02474,0.02484,-0.11514,0.11514,-0.26047,0.26147,-1.21195,0.0,0.0,-16.66667,-1.44707,1.45259,-6.73306,-0.0,5.0,5.0,0.0,0.0,0.0,0.0,0.0,0.0,1.25,1.25,0.0,0.0,0.12
0.18,-0.02749,0.0276,-0.12793,0.12793,-0.27494,0.27599,-1.27928,0.0,0.0,-16.66667,-1.44707,1.45259,-6.73306,-0.0,5.0,5.0,0.0,0.0,0.0,0.0,0.0,0.0,1.25,1.25,0.0,0.0,0.13
0.19,-0.03039,0.0305,-0.14139,0.14139,-0.28941,0.29052,-1.34661,0.0,0.0,-16.66667,-1.44707,1.45259,-6.73306,-0.0,5.0,5.0,0.0,0.0,0.0,0.0,0.0,0.0,1.25,1.25,0.0,0.0,0.14
0.2,-0.03343,0.03355,-0.15553,0.15553,-0.30388,0.30504,-1.41394,0.0,0.0,-16.66667,-1.44707,1.45259,-6.73306,-0.0,5.0,5.0,0.0,0.0,0.0,0.0,0.0,0.0,1.25,1.25,0.0,0.0,0.16
0.21,-0.03661,0.03675,-0.17035,0.17035,-0.31835,0.31957,-1.48127,0.0,0.0,-16.66667,-1.44707,1.45259,-6.73306,-0.0,5.0,5.0,0.0,0.0,0.0,0.0,0.0,0.0,1.25,1.25,0.0,0.0,0.17
0.22,-0.03994,0.04009,-0.18583,0.18583,-0.33283,0.3341,-1.5486,0.0,0.0,-16.66667,-1.44707,1.45259,-6.73306,-0.0,5.0,5.0,0.0,0.0,0.0,0.0,0.0,0.0,1.25,1.25,0.0,0.0,0.19
0.23,-0.04341,0.04358,-0.20199,0.20199,-0.3473,0.34862,-1.61594,0.0,0.0,-16.66667,-1.44707,1.45259,-6.73306,-0.0,5.0,5.0,0.0,0.0,0.0,0.0,0.0,0.0,1.25,1.25,0.0,0.0,0.2
0.24,-0.04703,0.04721,-0.21882,0.21882,-0.36177,0.36315,-1.68327,0.0,0.0,-16.66667,-1.44707,1.45259,-6.73306,-0.0,5.0,5.0,0.0,0.0,0.0,0.0,0.0,0.0,1.25,1.25,0.0,0.0,0.22
0.25,-0.05079,0.05099,-0.23633,0.23633,-0.37624,0.37767,-1.7506,0.0,0.0,-16.66667,-1.44707,1.45259,-6.73306,-0.0,5.0,5.0,0.0,0.0,0.0,0.0,0.0,0.0,1.25,1.25,0.0,0.0,0.24
0.26,-0.0547,0.05491,-0.25451,0.25451,-0.39071,0.3922,-1.81793,0.0,0.0,-16.66667,-1.44707,1.45259,-6.73306,-0.0,5.0,5.0,0.0,0.0,0.0,0.0,0.0,0.0,1.25,1.25,0.0,0.0,0.25
0.27,-0.05875,0.05898,-0.27336,0.27336,-0.40518,0.40673,-1.88526,0.0,0.0,-16.66667,-1.44707,1.45259,-6.73306,-0.0,5.0,5.0,0.0,0.0,0.0,0.0,0.0,0.0,1.25,1.25,0.0,0.0,0.27
0.28,-0.06295,0.06319,-0.29289,0.29289,-0.41965,0.42125,-1.95259,0.0,0.0,-16.66667,-1.44707,1.45259,-6.73306,-0.0,5.0,5.0,0.0,0.0,0.0,0.0,0.0,0.0,1.25,1.25,0.0,0.0,0.29
0.29,-0.06729,0.06755,-0.31309,0.31309,-0.43412,0.43578,-2.01992,0.0,0.0,-16.66667,-1.44707,1.45259,-6.73306,-0.0,5.0,5.0,0.0,0.0,0.0,0.0,0.0,0.0,1.25,1.25,0.0,0.0,0.31
0.3,-0.07177,0.07205,-0.33396,0.33396,-0.44859,0.4503,-2.08725,0.0,0.0,-16.66667,-1.44707,1.45259,-6.73306,-0.0,5.0,5.0,0.0,0.0,0.0,0.0,0.0,0.0,1.25,1.25,0.0,0.0,0.33
0.31,-0.07641,0.0767,-0.35551,0.35551,-0.46306,0.46483,-2.15458,0.0,0.0,-16.66667,-1.44707,1.45259,-6.73306,-0.0,5.0,5.0,0.0,0.0,0.0,0.0,0.0,0.0,1.25,1.25,0.0,0.0,0.36
0.32,-0.08118,0.08149,-0.37772,0.37772,-0.47753,0.47936,-2.22191,0.0,0.0,-16.66667,-1.44707,1.45259,-6.73306,-0.0,5.0,5.0,0.0,0.0,0.0,0.0,0.0,0.0,1.25,1.25,0.0,0.0,0.38
0.33,-0.0861,0.08643,-0.40062,0.40062,-0.492,0.49388,-2.28924,0.0,0.0,-16.66667,-1.44707,1.45259,-6.73306,-0.0,5.0,5.0,0.0,0.0,0.0,0.0,0.0,0.0,1.25,1.25,0.0,0.0,0.4
0.34,-0.09117,0.09151,-0.42418,0.42418,-0.50647,0.50841,-2.35657,0.0,0.0,-16.66667,-1.44707,1.45259,-6.73306,-0.0,5.0,5.0,0.0,0.0,0.0,0.0,0.0,0.0,1.25,1.25,0.0,0.0,0.42
0.35,-0.09637,0.09674,-0.44842,0.44842,-0.52094,0.52293,-2.4239,0.0,0.0,-16.66667,-1.44707,1.45259,-6.73306,-0.0,5.0,5.0,0.0,0.0,0.0,0.0,0.0,0.0,1.25,1.25,0.0,0.0,0.45
0.36,-0.10173,0.10212,-0.47333,0.47333,-0.53541,0.53746,-2.49123,0.0,0.0,-16.66667,-1.44707,1.45259,-6.73306,-0.0,5.0,5.0,0.0,0.0,0.0,0.0,0.0,0.0,1.25,1.25,0.0,0.0,0.47
0.37,-0.10723,0.10764,-0.49892,0.49892,-0.54989,0.55199,-2.55856,0.0,0.0,-16.66667,-1.44707,1.45259,-6.73306,-0.0,5.0,5.0,0.0,0.0,0.0,0.0,0.0,0.0,1.25,1.25,0.0,0.0,0.5
0.38,-0.11287,0.1133,-0.52518,0.52518,-0.56436,0.56651,-2.6259,0.0,0.0,-16.66667,-1.44707,1.45259,-6.73306,-0.0,5.0,5.0,0.0,0.0,0.0,0.0,0.0,0.0,1.25,1.25,0.0,0.0,0.53
0.39,-0.11866,0.11911,-0.55211,0.55211,-0.57883,0.58104,-2.69323,0.0,0.0,-16.66667,-1.44707,1.45259,-6.73306,-0.0,5.0,5.0,0.0,0.0,0.0,0.0,0.0,0.0,1.25,1.25,0.0,0.0,0.55
0.4,-0.12459,0.12507,-0.57972,0.57972,-0.5933,0.59556,-2.76056,0.0,0.0,-16.66667,-1.44707,1.45259,-6.73306,-0.0,5.0,5.0,0.0,0.0,0.0,0.0,0.0,0.0,1.25,1.25,0.0,0.0,0.58
0.41,-0.13067,0.13117,-0.608,0.608,-0.60777,0.61009,-2.82789,0.0,0.0,-16.66667,-1.44707,1.45259,-6.73306,-0.0,5.0,5.0,0.0,0.0,0.0,0.0,0.0,0.0,1.25,1.25,0.0,0.0,0.61
0.42,-0.13689,0.13742,-0.63695,0.63695,-0.62224,0.62462,-2.89522,0.0,0.0,-16.66667,-1.44707,1.45259,-6.73306,-0.0,5.0,5.0,0.0,0.0,0.0,0.0,0.0,0.0,1.25,1.25,0.0,0.0,0.64
0.43,-0.14326,0.14381,-0.66657,0.66657,-0.63671,0.63914,-2.96255,0.0,0.0,-16.66667,-1.44707,1.45259,-6.73306,-0.0,5.0,5.0,0.0,0.0,0.0,0.0,0.0,0.0,1.25,1.25,0.0,0.0,0.67
0.44,-0.14977,0.15034,-0.69687,0.69687,-0.65118,0.65367,-3.02988,0.0,0.0,-16.66667,-1.44707,1.45259,-6.73306,-0.0,5.0,5.0,0.0,0.0,0.0,0.0,0.0,0.0,1.25,1.25,0.0,0.0,0.7
0.45,-0.15643,0.15703,-0.72784,0.72784,-0.66565,0.66819,-3.09721,0.0,0.0,-16.66667,-1.44707,1.45259,-6.73306,-0.0,5.0,5.0,0.0,0.0,0.0,0.0,0.0,0.0,1.25,1.25,0.0,0.0,0.73
0.46,-0.16323,0.16385,-0.75949,0.75949,-0.68012,0.68272,-3.16454,0.0,0.0,-16.66667,-1.44707,1.45259,-6.73306,-0.0,5.0,5.0,0.0,0.0,0.0,0.0,0.0,0.0,1.25,1.25,0.0,0.0,0.76
0.47,-0.17018,0.17083,-0.79181,0.79181,-0.69459,0.69725,-3.23187,0.0,0.0,-16.66667,-1.44707,1.45259,-6.73306,-0.0,5.0,5.0,0.0,0.0,0.0,0.0,0.0,0.0,1.25,1.25,0.0,0.0,0.79
0.48,-0.17727,0.17794,-0.8248,0.8248,-0.70906,0.71177,-3.2992,0.0,0.0,-16.66667,-1.44707,1.45259,-6.73306,-0.0,5.0,5.0,0.0,0.0,0.0,0.0,0.0,0.0,1.25,1.25,0.0,0.0,0.82
0.49,-0.1845,0.18521,-0.85847,0.85847,-0.72353,0.7263,-3.36653,0.0,0.0,-16.66667,-1.44707,1.45259,-6.73306,-0.0,5.0,5.0,0.0,0.0,0.0,0.0,0.0,0.0,1.25,1.25,0.0,0.0,0.86
0.5,-0.19188,0.19261,-0.8928,0.8928,-0.738,0.74082,-3.43386,0.0,0.0,-16.66667,-1.44707,1.45259,-6.73306,-0.0,5.0,5.0,0.0,0.0,0.0,0.0,0.0,0.0,1.25,1.25,0.0,0.0,0.89
0.51,-0.19941,0.20017,-0.92782,0.92782,-0.75247,0.75535,-3.50119,0.0,0.0,-16.66667,-1.44707,1.45259,-6.73306,-0.0,5.0,5.0,0.0,0.0,0.0,0.0,0.0,0.0,1.25,1.25,0.0,0.0,0.93
0.52,-0.20708,0.20787,-0.9635,0.9635,-0.76695,0.76988,-3.56852,0.0,0.0,-16.66667,-1.44707,1.45259,-6.73306,-0.0,5.0,5.0,0.0,0.0,0.0,0.0,0.0,0.0,1.25,1.25,0.0,0.0,0.96
0.53,-0.21489,0.21571,-0.99986,0.99986,-0.78142,0.7844,-3.63586,0.0,0.0,-16.66667,-1.44707,1.45259,-6.73306,-0.0,5.0,5.0,0.0,0.0,0.0,0.0,0.0,0.0,1.25,1.25,0.0,0.0,1.0
0.54,-0.22285,0.2237,-1.03689,1.03689,-0.79589,0.79893,-3.70319,0.0,0.0,-16.66667,-1.44707,1.45259,-6.73306,-0.0,5.0,5.0,0.0,0.0,0.0,0.0,0.0,0.0,1.25,1.25,0.0,0.0,1.04
0.55,-0.23095,0.23183,-1.0746,1.0746,-0.81036,0.81345,-3.77052,0.0,0.0,-16.66667,-1.44707,1.45259,-6.73306,-0.0,5.0,5.0,0.0,0.0,0.0,0.0,0.0,0.0,1.25,1.25,0.0,0.0,1.07
0.56,-0.2392,0.24011,-1.11298,1.11298,-0.82483,0.82798,-3.83785,0.0,0.0,-16.66667,-1.44707,1.45259,-6.73306,-0.0,5.0,5.0,0.0,0.0,0.0,0.0,0.0,0.0,1.25,1.25,0.0,0.0,1.11
0.57,-0.24759,0.24854,-1.15203,1.15203,-0.8393,0.8425,-3.90518,0.0,0.0,-16.66667,-1.44707,1.45259,-6.73306,-0.0,5.0,5.0,0.0,0.0,0.0,0.0,0.0,0.0,1.25,1.25,0.0,0.0,1.15
0.58,-0.25613,0.25711,-1.19175,1.19175,-0.85377,0.85703,-3.97251,0.0,0.0,-16.66667,-1.44707,1.45259,-6.73306,-0.0,5.0,5.0,0.0,0.0,0.0,0.0,0.0,0.0,1.25,1.25,0.0,0.0,1.19
0.59,-0.26481,0.26582,-1.23215,1.23215,-0.86824,0.87156,-4.03984,0.0,0.0,-16.66667,-1.44707,1.45259,-6.73306,-0.0,5.0,5.0,0.0,0.0,0.0,0.0,0.0,0.0,1.25,1.25,0.0,0.0,1.23
0.6,-0.27364,0.27469,-1.27322,1.27322,-0.88271,0.88608,-4.10717,0.0,0.0,-16.66667,-1.44707,1.45259,-6.73306,-0.0,5.0,5.0,0.0,0.0,0.0,0.0,0.0,0.0,1.25,1.25,0.0,0.0,1.27
0.61,-0.28261,0.28369,-1.31497,1.31497,-0.89718,0.90061,-4.1745,0.0,0.0,-16.66667,-1.44707,1.45259,-6.73306,-0.0,5.0,5.0,0.0,0.0,0.0,0.0,0.0,0.0,1.25,1.25,0.0,0.0,1.31
0.62,-0.29173,0.29284,-1.35739,1.35739,-0.91165,0.91513,-4.24183,0.0,0.0,-16.66667,-1.44707,1.45259,-6.73306,-0.0,5.0,5.0,0.0,0.0,0.0,0.0,0.0,0.0,1.25,1.25,0.0,0.0,1.36
0.63,-0.30099,0.30214,-1.40048,1.40048,-0.92612,0.92966,-4.30916,0.0,0.0,-16.66667,-1.44707,1.45259,-6.73306,-0.0,5.0,5.0,0.0,0.0,0.0,0.0,0.0,0.0,1.25,1.25,0.0,0.0,1.4
0.64,-0.3104,0.31158,-1.44424,1.44424,-0.94059,0.94419,-4.37649,0.0,0.0,-16.66667,-1.44707,1.45259,-6.73306,-0.0,5.0,5.0,0.0,0.0,0.0,0.0,0.0,0.0,1.25,1.25,0.0,0.0,1.44
0.65,-0.31995,0.32117,-1.48868,1.48868,-0.95506,0.95871,-4.44382,0.0,0.0,-16.66667,-1.44707,1.45259,-6.73306,-0.0,5.0,5.0,0.0,0.0,0.0,0.0,0.0,0.0,1.25,1.25,0.0,0.0,1.49
0.66,-0.32964,0.3309,-1.53379,1.53379,-0.96953,0.97324,-4.51115,0.0,0.0,-16.66667,-1.44707,1.45259,-6.73306,-0.0,5.0,5.0,0.0,0.0,0.0,0.0,0.0,0.0,1.25,1.25,0.0,0.0,1.53
0.67,-0.33948,0.34078,-1.57958,1.57958,-0.98401,0.98776,-4.57848,0.0,0.0,-16.66667,-1.44707,1.45259,-6.73306,-0.0,5.0,5.0,0.0,0.0,0.0,0.0,0.0,0.0,1.25,1.25,0.0,0.0,1.58
0.68,-0.34947,0.3508,-1.62604,1.62604,-0.99848,1.00229,-4.64581,0.0,0.0,-16.66667,-1.44707,1.45259,-6.73306,-0.0,5.0,5.0,0.0,0.0,0.0,0.0,0.0,0.0,1.25,1.25,0.0,0.0,1.63
0.69,-0.3596,0.36097,-1.67317,1.67317,-1.01295,1.01682,-4.71315,0.0,0.0,-16.66667,-1.44707,1.45259,-6.73306,-0.0,5.0,5.0,0.0,0.0,0.0,0.0,0.0,0.0,1.25,1.25,0.0,0.0,1.67
0.7,-0.36987,0.37128,-1.72097,1.72097,-1.02742,1.03134,-4.78048,0.0,0.0,-16.66667,-1.44707,1.45259,-6.73306,-0.0,5.0,5.0,0.0,0.0,0.0,0.0,0.0,0.0,1.25,1.25,0.0,0.0,1.72
0.71,-0.38029,0.38174,-1.76945,1.76945,-1.04189,1.04587,-4.84781,0.0,0.0,-16.66667,-1.44707,1.45259,-6.73306,-0.0,5.0,5.0,0.0,0.0,0.0,0.0,0.0,0.0,1.25,1.25,0.0,0.0,1.77
0.72,-0.39085,0.39235,-1.8186,1.8186,-1.05636,1.06039,-4.91514,0.0,0.0,-16.66667,-1.44707,1.45259,-6.73306,-0.0,5.0,5.0,0.0,0.0,0.0,0.0,0.0,0.0,1.25,1.25,0.0,0.0,1.82
0.73,-0.40156,0.40309,-1.86843,1.86843,-1.07083,1.07492,-4.98247,0.0,0.0,-16.66667,-1.44707,1.45259,-6.73306,-0.0,5.0,5.0,0.0,0.0,0.0,0.0,0.0,0.0,1.25,1.25,0.0,0.0,1.87
0.74,-0.41241,0.41399,-1.91892,1.91892,-1.0853,1.08945,-5.0498,0.0,0.0,-16.66667,-1.44707,1.45259,-6.73306,-0.0,5.0,5.0,0.0,0.0,0.0,0.0,0.0,0.0,1.25,1.25,0.0,0.0,1.92
0.75,-0.42341,0.42503,-1.97009,1.97009,-1.09977,1.10397,-5.11713,0.0,0.0,-16.66667,-1.44707,1.45259,-6.73306,-0.0,5.0,5.0,0.0,0.0,0.0,0.0,0.0,0.0,1.25,1.25,0.0,0.0,1.97
0.76,-0.43455,0.43621,-2.02194,2.02194,-1.11424,1.1185,-5.18446,0.0,0.0,-16.66667,-1.44707,1.45259,-6.73306,-0.0,5.0,5.0,0.0,0.0,0.0,0.0,0.0,0.0,1.25,1.25,0.0,0.0,2.02
0.77,-0.44584,0.44754,-2.07446,2.07446,-1.12871,1.13302,-5.25179,0.0,0.0,-16.66667,-1.44707,1.45259,-6.73306,-0.0,5.0,5.0,0.0,0.0,0.0,0.0,0.0,0.0,1.25,1.25,0.0,0.0,2.07
0.78,-0.45727,0.45902,-2.12765,2.12765,-1.14318,1.14755,-5.31912,0.0,0.0,-16.66667,-1.44707,1.45259,-6.73306,-0.0,5.0,5.0,0.0,0.0,0.0,0.0,0.0,0.0,1.25,1.25,0.0,0.0,2.13
0.79,-0.46885,0.47064,-2.18151,2.18151,-1.15765,1.16208,-5.38645,0.0,0.0,-16.66667,-1.44707,1.45259,-6.73306,-0.0,5.0,5.0,0.0,0.0,0.0,0.0,0.0,0.0,1.25,1.25,0.0,0.0,2.18
0.8,-0.48057,0.48241,-2.23605,2.23605,-1.17212,1.1766,-5.45378,0.0,0.0,-16.66667,-1.44707,1.45259,-6.73306,-0.0,5.0,5.0,0.0,0.0,0.0,0.0,0.0,0.0,1.25,1.25,0.0,0.0,2.24
0.81,-0.49244,0.49432,-2.29126,2.29126,-1.18659,1.19113,-5.52111,0.0,0.0,-16.66667,-1.44707,1.45259,-6.73306,-0.0,5.0,5.0,0.0,0.0,0.0,0.0,0.0,0.0,1.25,1.25,0.0,0.0,2.29
0.82,-0.50445,0.50637,-2.34715,2.34715,-1.20107,1.20565,-5.58844,0.0,0.0,-16.66667,-1.44707,1.45259,-6.73306,-0.0,5.0,5.0,0.0,0.0,0.0,0.0,0.0,0.0,1.25,1.25,0.0,0.0,2.35
0.83,-0.5166,0.51858,-2.4037,2.4037,-1.21554,1.22018,-5.65577,0.0,0.0,-16.66667,-1.44707,1.45259,-6.73306,-0.0,5.0,5.0,0.0,0.0,0.0,0.0,0.0,0.0,1.25,1.25,0.0,0.0,2.4
0.84,-0.5289,0.53092,-2.46094,2.46094,-1.23001,1.23471,-5.72311,0.0,0.0,-16.66667,-1.44707,1.45259,-6.73306,-0.0,5.0,5.0,0.0,0.0,0.0,0.0,0.0,0.0,1.25,1.25,0.0,0.0,2.46
0.85,-0.54135,0.54342,-2.51884,2.51884,-1.24448,1.24923,-5.79044,0.0,0.0,-16.66667,-1.44707,1.45259,-6.73306,-0.0,5.0,5.0,0.0,0.0,0.0,0.0,0.0,0.0,1.25,1.25,0.0,0.0,2.52
0.86,-0.55394,0.55605,-2.57742,2.57742,-1.25895,1.26376,-5.85777,0.0,0.0,-16.66667,-1.44707,1.45259,-6.73306,-0.0,5.0,5.0,0.0,0.0,0.0,0.0,0.0,0.0,1.25,1.25,0.0,0.0,2.58
0.87,-0.56667,0.56884,-2.63667,2.63667,-1.27342,1.27828,-5.9251,0.0,0.0,-16.66667,-1.44707,1.45259,-6.73306,-0.0,5.0,5.0,0.0,0.0,0.0,0.0,0.0,0.0,1.25,1.25,0.0,0.0,2.64
0.88,-0.57955,0.58176,-2.69659,2.69659,-1.28789,1.29281,-5.99243,0.0,0.0,-16.66667,-1.44707,1.45259,-6.73306,-0.0,5.0,5.0,0.0,0.0,0.0,0.0,0.0,0.0,1.25,1.25,0.0,0.0,2.7
0.89,-0.59257,0.59484,-2.75719,2.75719,-1.30236,1.30734,-6.05976,0.0,0.0,-16.66667,-1.44707,1.45259,-6.73306,-0.0,5.0,5.0,0.0,0.0,0.0,0.0,0.0,0.0,1.25,1.25,0.0,0.0,2.76
0.9,-0.60574,0.60806,-2.81846,2.81846,-1.31683,1.32186,-6.12709,0.0,0.0,-16.66667,-1.44707,1.45259,-6.73306,-0.0,5.0,5.0,0.0,0.0,0.0,0.0,0.0,0.0,1.25,1.25,0.0,0.0,2.82
0.91,-0.61906,0.62142,-2.88041,2.88041,-1.3313,1.33639,-6.19442,0.0,0.0,-16.66667,-1.44707,1.45259,-6.73306,-0.0,5.0,5.0,0.0,0.0,0.0,0.0,0.0,0.0,1.25,1.25,0.0,0.0,2.88
0.92,-0.63251,0.63493,-2.94302,2.94302,-1.34577,1.35091,-6.26175,0.0,0.0,-16.66667,-1.44707,1.45259,-6.73306,-0.0,5.0,5.0,0.0,0.0,0.0,0.0,0.0,0.0,1.25,1.25,0.0,0.0,2.94
0.93,-0.64612,0.64858,-3.00631,3.00631,-1.36024,1.36544,-6.32908,0.0,0.0,-16.66667,-1.44707,1.45259,-6.73306,-0.0,5.0,5.0,0.0,0.0,0.0,0.0,0.0,0.0,1.25,1.25,0.0,0.0,3.01
0.94,-0.65986,0.66238,-3.07028,3.07028,-1.37471,1.37996,-6.39641,0.0,0.0,-16.66667,-1.44707,1.45259,-6.73306,-0.0,5.0,5.0,0.0,0.0,0.0,0.0,0.0,0.0,1.25,1.25,0.0,0.0,3.07
0.95,-0.67375,0.67633,-3.13491,3.13491,-1.38918,1.39449,-6.46374,0.0,0.0,-16.66667,-1.44707,1.45259,-6.73306,-0.0,5.0,5.0,0.0,0.0,0.0,0.0,0.0,0.0,1.25,1.25,0.0,0.0,3.13
0.96,-0.68779,0.69042,-3.20023,3.20023,-1.40365,1.40902,-6.53107,0.0,0.0,-16.66667,-1.44707,1.45259,-6.73306,-0.0,5.0,5.0,0.0,0.0,0.0,0.0,0.0,0.0,1.25,1.25,0.0,0.0,3.2
0.97,-0.70197,0.70465,-3.26621,3.26621,-1.41813,1.42354,-6.5984,0.0,0.0,-16.66667,-1.44707,1.45259,-6.73306,-0.0,5.0,5.0,0.0,0.0,0.0,0.0,0.0,0.0,1.25,1.25,0.0,0.0,3.27
0.98,-0.7163,0.71903,-3.33287,3.33287,-1.4326,1.43807,-6.66573,0.0,0.0,-16.66667,-1.44707,1.45259,-6.73306,-0.0,5.0,5.0,0.0,0.0,0.0,0.0,0.0,0.0,1.25,1.25,0.0,0.0,3.33
0.99,-0.73077,0.73356,-3.4002,3.4002,-1.44707,1.45259,-6.73306,0.0,0.0,-16.66667,-1.44707,1.45259,-6.73306,-0.0,5.0,5.0,0.0,0.0,0.0,0.0,0.0,0.0,1.25,1.25,0.0,0.0,3.4
1.0,-0.74538,0.74823,-3.4682,3.4682,-1.46154,1.46712,-6.8004,0.0,0.0,-16.66667,-1.44707,1.45259,-6.73306,-0.0,5.0,5.0,0.0,0.0,0.0,0.0,0.0,0.0,1.25,1.25,0.0,0.0,3.47
1.01,-0.76014,0.76305,-3.53688,3.53688,-1.47601,1.48165,-6.86773,0.0,0.0,-16.66667,-1.44707,1.45259,-6.73306,-0.0,5.0,5.0,0.0,0.0,0.0,0.0,0.0,0.0,1.25,1.25,0.0,0.0,3.54
1.02,-0.77505,0.77801,-3.60623,3.60623,-1.49048,1.49617,-6.93506,0.0,0.0,-16.66667,-1.44707,1.45259,-6.73306,-0.0,5.0,5.0,0.0,0.0,0.0,0.0,0.0,0.0,1.25,1.25,0.0,0.0,3.61
1.03,-0.7901,0.79312,-3.67625,3.67625,-1.50495,1.5107,-7.00239,0.0,0.0,-16.66667,-1.44707,1.45259,-6.73306,-0.0,5.0,5.0,0.0,0.0,0.0,0.0,0.0,0.0,1.25,1.25,0.0,0.0,3.68
1.04,-0.80529,0.80837,-3.74695,3.74695,-1.51942,1.52522,-7.06972,0.0,0.0,-16.66667,-1.44707,1.45259,-6.73306,-0.0,5.0,5.0,0.0,0.0,0.0,0.0,0.0,0.0,1.25,1.25,0.0,0.0,3.75
1.05,-0.82063,0.82377,-3.81832,3.81832,-1.53389,1.53975,-7.13705,0.0,0.0,-16.66667,-1.44707,1.45259,-6.73306,-0.0,5.0,5.0,0.0,0.0,0.0,0.0,0.0,0.0,1.25,1.25,0.0,0.0,3.82
1.06,-0.83612,0.83931,-3.89036,3.89036,-1.54836,1.55428,-7.20438,0.0,0.0,-16.66667,-1.44707,1.45259,-6.73306,-0.0,5.0,5.0,0.0,0.0,0.0,0.0,0.0,0.0,1.25,1.25,0.0,0.0,3.89
1.07,-0.85174,0.855,-3.96308,3.96308,-1.56283,1.5688,-7.27171,0.0,0.0,-16.66667,-1.44707,1.45259,-6.73306,-0.0,5.0,5.0,0.0,0.0,0.0,0.0,0.0,0.0,1.25,1.25,0.0,0.0,3.96
1.08,-0.86752,0.87083,-4.03647,4.03647,-1.5773,1.58333,-7.33904,0.0,0.0,-16.66667,-1.44707,1.45259,-6.73306,-0.0,5.0,5.0,0.0,0.0,0.0,0.0,0.0,0.0,1.25,1.25,0.0,0.0,4.04
1.09,-0.88343,0.88681,-4.11054,4.11054,-1.59177,1.59785,-7.40637,0.0,0.0,-16.66667,-1.44707,1.45259,-6.73306,-0.0,5.0,5.0,0.0,0.0,0.0,0.0,0.0,0.0,1.25,1.25,0.0,0.0,4.11
1.1,-0.8995,0.90293,-4.18527,4.18527,-1.60624,1.61238,-7.4737,0.0,0.0,-16.66667,-1.44707,1.45259,-6.73306,-0.0,5.0,5.0,0.0,0.0,0.0,0.0,0.0,0.0,1.25,1.25,0.0,0.0,4.19
1.11,-0.9157,0.9192,-4.26068,4.26068,-1.62071,1.62691,-7.54103,0.0,0.0,-16.66667,-1.44707,1.45259,-6.73306,-0.0,5.0,5.0,0.0,0.0,0.0,0.0,0.0,0.0,1.25,1.25,0.0,0.0,4.26
1.12,-0.93206,0.93562,-4.33677,4.33677,-1.63519,1.64143,-7.60836,0.0,0.0,-16.66667,-1.44707,1.45259,-6.73306,-0.0,5.0,5.0,0.0,0.0,0.0,0.0,0.0,0.0,1.25,1.25,0.0,0.0,4.34
1.13,-0.94855,0.95218,-4.41352,4.41352,-1.64966,1.65596,-7.67569,0.0,0.0,-16.66667,-1.44707,1.45259,-6.73306,-0.0,5.0,5.0,0.0,0.0,0.0,0.0,0.0,0.0,1.25,1.25,0.0,0.0,4.41
1.14,-0.96519,0.96888,-4.49095,4.49095,-1.66413,1.67048,-7.74302,0.0,0.0,-16.66667,-1.44707,1.45259,-6.73306,-0.0,5.0,5.0,0.0,0.0,0.0,0.0,0.0,0.0,1.25,1.25,0.0,0.0,4.49
1.15,-0.98198,0.98573,-4.56906,4.56906,-1.6786,1.68501,-7.81036,0.0,0.0,-16.66667,-1.44707,1.45259,-6.73306,-0.0,5.0,5.0,0.0,0.0,0.0,0.0,0.0,0.0,1.25,1.25,0.0,0.0,4.57
1.16,-0.99891,1.00273,-4.64783,4.64783,-1.69307,1.69954,-7.87769,0.0,0.0,-16.66667,-1.44707,1.45259,-6.73306,-0.0,5.0,5.0,0.0,0.0,0.0,0.0,0.0,0.0,1.25,1.25,0.0,0.0,4.65
1.17,-1.01599,1.01987,-4.72728,4.72728,-1.70754,1.71406,-7.94502,0.0,0.0,-16.66667,-1.44707,1.45259,-6.73306,-0.0,5.0,5.0,0.0,0.0,0.0,0.0,0.0,0.0,1.25,1.25,0.0,0.0,4.73
1.18,-1.03321,1.03715,-4.80741,4.80741,-1.72201,1.72859,-8.01235,0.0,0.0,-16.66667,-1.44707,1.45259,-6.73306,-0.0,5.0,5.0,0.0,0.0,0.0,0.0,0.0,0.0,1.25,1.25,0.0,0.0,4.81
1.19,-1.05057,1.05458,-4.88821,4.88821,-1.73648,1.74311,-8.07968,0.0,0.0,-16.66667,-1.44707,1.45259,-6.73306,-0.0,5.0,5.0,0.0,0.0,0.0,0.0,0.0,0.0,1.25,1.25,0.0,0.0,4.89
1.2,-1.06808,1.07216,-4.96968,4.96968,-1.75095,1.75764,-8.14701,0.0,0.0,-16.66667,-1.44707,1.45259,-6.73306,-0.0,5.0,5.0,0.0,0.0,0.0,0.0,0.0,0.0,1.25,1.25,0.0,0.0,4.97
1.21,-1.08573,1.08988,-5.05182,5.05182,-1.76542,1.77217,-8.21434,0.0,0.0,-16.66667,-1.44707,1.45259,-6.73306,-0.0,5.0,5.0,0.0,0.0,0.0,0.0,0.0,0.0,1.25,1.25,0.0,0.0,5.05
1.22,-1.10353,1.10775,-5.13464,5.13464,-1.77989,1.78669,-8.28167,0.0,0.0,-16.66667,-1.44707,1.45259,-6.73306,-0.0,5.0,5.0,0.0,0.0,0.0,0.0,0.0,0.0,1.25,1.25,0.0,0.0,5.13
1.23,-1.12148,1.12576,-5.21813,5.21813,-1.79436,1.80122,-8.349,0.0,0.0,-16.66667,-1.44707,1.45259,-6.73306,-0.0,5.0,5.0,0.0,0.0,0.0,0.0,0.0,0.0,1.25,1.25,0.0,0.0,5.22
1.24,-1.13957,1.14392,-5.30229,5.30229,-1.80883,1.81574,-8.41633,0.0,0.0,-16.66667,-1.44707,1.45259,-6.73306,-0.0,5.0,5.0,0.0,0.0,0.0,0.0,0.0,0.0,1.25,1.25,0.0,0.0,5.3
1.25,-1.1578,1.16222,-5.38713,5.38713,-1.8233,1.83027,-8.48366,0.0,0.0,-16.66667,-1.44707,1.45259,-6.73306,-0.0,5.0,5.0,0.0,0.0,0.0,0.0,0.0,0.0,1.25,1.25,0.0,0.0,5.39
1.26,-1.17618,1.18067,-5.47264,5.47264,-1.83778,1.8448,-8.55099,0.0,0.0,-16.66667,-1.44707,1.45259,-6.73306,-0.0,5.0,5.0,0.0,0.0,0.0,0.0,0.0,0.0,1.25,1.25,0.0,0.0,5.47
1.27,-1.1947,1.19926,-5.55882,5.55882,-1.85225,1.85932,-8.61832,0.0,0.0,-16.66667,-1.44707,1.45259,-6.73306,-0.0,5.0,5.0,0.0,0.0,0.0,0.0,0.0,0.0,1.25,1.25,0.0,0.0,5.56
1.28,-1.21337,1.218,-5.64567,5.64567,-1.86672,1.87385,-8.68565,0.0,0.0,-16.66667,-1.44707,1.45259,-6.73306,-0.0,5.0,5.0,0.0,0.0,0.0,0.0,0.0,0.0,1.25,1.25,0.0,0.0,5.65
1.29,-1.23218,1.23688,-5.7332,5.7332,-1.88119,1.88837,-8.75298,0.0,0.0,-16.66667,-1.44707,1.45259,-6.73306,-0.0,5.0,5.0,0.0,0.0,0.0,0.0,0.0,0.0,1.25,1.25,0.0,0.0,5.73
1.3,-1.25113,1.25591,-5.82141,5.82141,-1.89566,1.9029,-8.82031,0.0,0.0,-16.66667,-1.44707,1.45259,-6.73306,-0.0,5.0,5.0,0.0,0.0,0.0,0.0,0.0,0.0,1.25,1.25,0.0,0.0,5.82
1.31,-1.27024,1.27509,-5.91028,5.91028,-1.91013,1.91742,-8.88765,0.0,0.0,-16.66667,-1.44707,1.45259,-6.73306,-0.0,5.0,5.0,0.0,0.0,0.0,0.0,0.0,0.0,1.25,1.25,0.0,0.0,5.91
1.32,-1.28948,1.29441,-5.99983,5.99983,-1.9246,1.93195,-8.95498,0.0,0.0,-16.66667,-1.44707,1.45259,-6.73306,-0.0,5.0,5.0,0.0,0.0,0.0,0.0,0.0,0.0,1.25,1.25,0.0,0.0,6.0
1.33,-1.30887,1.31387,-6.09006,6.09006,-1.93907,1.94648,-9.02231,0.0,0.0,-16.66667,-1.44707,1.45259,-6.73306,-0.0,5.0,5.0,0.0,0.0,0.0,0.0,0.0,0.0,1.25,1.25,0.0,0.0,6.09
1.34,-1.32841,1.33348,-6.18095,6.18095,-1.95354,1.961,-9.08964,0.0,0.0,-16.66667,-1.44707,1.45259,-6.73306,-0.0,5.0,5.0,0.0,0.0,0.0,0.0,0.0,0.0,1.25,1.25,0.0,0.0,6.18
1.35,-1.34809,1.35324,-6.27252,6.27252,-1.96801,1.97553,-9.15697,0.0,0.0,-16.66667,-1.44707,1.45259,-6.73306,-0.0,5.0,5.0,0.0,0.0,0.0,0.0,0.0,0.0,1.25,1.25,0.0,0.0,6.27
1.36,-1.36791,1.37314,-6.36477,6.36477,-1.98248,1.99005,-9.2243,0.0,0.0,-16.66667,-1.44707,1.45259,-6.73306,-0.0,5.0,5.0,0.0,0.0,0.0,0.0,0.0,0.0,1.25,1.25,0.0,0.0,6.36
1.37,-1.38788,1.39318,-6.45768,6.45768,-1.99695,2.00458,-9.29163,0.0,0.0,-16.66667,-1.44707,1.45259,-6.73306,-0.0,5.0,5.0,0.0,0.0,0.0,0.0,0.0,0.0,1.25,1.25,0.0,0.0,6.46
1.38,-1.408,1.41337,-6.55127,6.55127,-2.01142,2.01911,-9.35896,0.0,0.0,-16.66667,-1.44707,1.45259,-6.73306,-0.0,5.0,5.0,0.0,0.0,0.0,0.0,0.0,0.0,1.25,1.25,0.0,0.0,6.55
1.39,-1.42826,1.43371,-6.64553,6.64553,-2.02589,2.03363,-9.42629,0.0,0.0,-16.66667,-1.44707,1.45259,-6.73306,-0.0,5.0,5.0,0.0,0.0,0.0,0.0,0.0,0.0,1.25,1.25,0.0,0.0,6.65
1.4,-1.44866,1.45419,-6.74047,6.74047,-2.04036,2.04816,-9.49362,0.0,0.0,-16.66667,-1.44707,1.45259,-6.73306,-0.0,5.0,5.0,0.0,0.0,0.0,0.0,0.0,0.0,1.25,1.25,0.0,0.0,6.74
1.41,-1.46921,1.47482,-6.83608,6.83608,-2.05484,2.06268,-9.56095,0.0,0.0,-16.66667,-1.44707,1.45259,-6.73306,-0.0,5.0,5.0,0.0,0.0,0.0,0.0,0.0,0.0,1.25,1.25,0.0,0.0,6.84
1.42,-1.4899,1.49559,-6.93236,6.93236,-2.06931,2.07721,-9.62828,0.0,0.0,-16.66667,-1.44707,1.45259,-6.73306,-0.0,5.0,5.0,0.0,0.0,0.0,0.0,0.0,0.0,1.25,1.25,0.0,0.0,6.93
1.43,-1.51074,1.51651,-7.02932,7.02932,-2.08378,2.09174,-9.69561,0.0,0.0,-16.66667,-1.44707,1.45259,-6.73306,-0.0,5.0,5.0,0.0,0.0,0.0,0.0,0.0,0.0,1.25,1.25,0.0,0.0,7.03
1.44,-1.53172,1.53757,-7.12695,7.12695,-2.09825,2.10626,-9.76294,0.0,0.0,-16.66667,-1.44707,1.45259,-6.73306,-0.0,5.0,5.0,0.0,0.0,0.0,0.0,0.0,0.0,1.25,1.25,0.0,0.0,7.13
1.45,-1.55285,1.55878,-7.22525,7.22525,-2.11272,2.12079,-9.83027,0.0,0.0,-16.66667,-1.44707,1.45259,-6.73306,-0.0,5.0,5.0,0.0,0.0,0.0,0.0,0.0,0.0,1.25,1.25,0.0,0.0,7.23
1.46,-1.57412,1.58013,-7.32423,7.32423,-2.12719,2.13531,-9.89761,0.0,0.0,-16.66667,-1.44707,1.45259,-6.73306,-0.0,5.0,5.0,0.0,0.0,0.0,0.0,0.0,0.0,1.25,1.25,0.0,0.0,7.32
1.47,-1.59554,1.60163,-7.42388,7.42388,-2.14166,2.14984,-9.96494,0.0,0.0,-16.66667,-1.44707,1.45259,-6.73306,-0.0,5.0,5.0,0.0,0.0,0.0,0.0,0.0,0.0,1.25,1.25,0.0,0.0,7.42
1.48,-1.6171,1.62327,-7.5242,7.5242,-2.15613,2.16437,-10.03227,0.0,0.0,-16.66667,-1.44707,1.45259,-6.73306,-0.0,5.0,5.0,0.0,0.0,0.0,0.0,0.0,0.0,1.25,1.25,0.0,0.0,7.52
1.49,-1.6388,1.64506,-7.6252,7.6252,-2.1706,2.17889,-10.0996,0.0,0.0,-16.66667,-1.44707,1.45259,-6.73306,-0.0,5.0,5.0,0.0,0.0,0.0,0.0,0.0,0.0,1.25,1.25,0.0,0.0,7.63
1.5,-1.66065,1.667,-7.72687,7.72687,-2.18507,2.19342,-10.16693,0.0,0.0,-16.66667,-1.44707,1.45259,-6.73306,-0.0,5.0,5.0,0.0,0.0,0.0,0.0,0.0,0.0,1.25,1.25,0.0,0.0,7.73
1.51,-1.68265,1.68908,-7.82921,7.82921,-2.19954,2.20794,-10.23426,0.0,0.0,-16.66667,-1.44707,1.45259,-6.73306,-0.0,5.0,5.0,0.0,0.0,0.0,0.0,0.0,0.0,1.25,1.25,0.0,0.0,7.83
1.52,-1.70479,1.7113,-7.93222,7.93222,-2.21401,2.22247,-10.30159,0.0,0.0,-16.66667,-1.44707,1.45259,-6.73306,-0.0,5.0,5.0,0.0,0.0,0.0,0.0,0.0,0.0,1.25,1.25,0.0,0.0,7.93
1.53,-1.72707,1.73367,-8.03591,8.03591,-2.22848,2.237,-10.36892,0.0,0.0,-16.66667,-1.44707,1.45259,-6.73306,-0.0,5.0,5.0,0.0,0.0,0.0,0.0,0.0,0.0,1.25,1.25,0.0,0.0,8.04
1.54,-1.7495,1.75619,-8.14028,8.14028,-2.24295,2.25152,-10.43625,0.0,0.0,-16.66667,-1.44707,1.45259,-6.73306,-0.0,5.0,5.0,0.0,0.0,0.0,0.0,0.0,0.0,1.25,1.25,0.0,0.0,8.14
1.55,-1.77208,1.77885,-8.24531,8.24531,-2.25742,2.26605,-10.50358,0.0,0.0,-16.66667,-1.44707,1.45259,-6.73306,-0.0,5.0,5.0,0.0,0.0,0.0,0.0,0.0,0.0,1.25,1.25,0.0,0.0,8.25
1.56,-1.7948,1.80165,-8.35102,8.35102,-2.2719,2.28057,-10.57091,0.0,0.0,-16.66667,-1.44707,1.45259,-6.73306,-0.0,5.0,5.0,0.0,0.0,0.0,0.0,0.0,0.0,1.25,1.25,0.0,0.0,8.35
1.57,-1.81766,1.8246,-8.4574,8.4574,-2.28637,2.2951,-10.63824,0.0,0.0,-16.66667,-1.44707,1.45259,-6.73306,-0.0,5.0,5.0,0.0,0.0,0.0,0.0,0.0,0.0,1.25,1.25,0.0,0.0,8.46
1.58,-1.84067,1.8477,-8.56446,8.56446,-2.30084,2.30963,-10.70557,0.0,0.0,-16.66667,-1.44707,1.45259,-6.73306,-0.0,5.0,5.0,0.0,0.0,0.0,0.0,0.0,0.0,1.25,1.25,0.0,0.0,8.56
1.59,-1.86382,1.87094,-8.67219,8.67219,-2.31531,2.32415,-10.7729,0.0,0.0,-16.66667,-1.44707,1.45259,-6.73306,-0.0,5.0,5.0,0.0,0.0,0.0,0.0,0.0,0.0,1.25,1.25,0.0,0.0,8.67
1.6,-1.88712,1.89433,-8.78059,8.78059,-2.32978,2.33868,-10.84023,0.0,0.0,-16.66667,-1.44707,1.45259,-6.73306,-0.0,5.0,5.0,0.0,0.0,0.0,0.0,0.0,0.0,1.25,1.25,0.0,0.0,8.78
1.61,-1.91056,1.91786,-8.88967,8.88967,-2.34425,2.3532,-10.90757,0.0,0.0,-16.66667,-1.44707,1.45259,-6.73306,-0.0,5.0,5.0,0.0,0.0,0.0,0.0,0.0,0.0,1.25,1.25,0.0,0.0,8.89
1.62,-1.93415,1.94154,-8.99941,8.99941,-2.35872,2.36773,-10.9749,0.0,0.0,-16.66667,-1.44707,1.45259,-6.73306,-0.0,5.0,5.0,0.0,0.0,0.0,0.0,0.0,0.0,1.25,1.25,0.0,0.0,9.0
1.63,-1.95788,1.96536,-9.10984,9.10984,-2.37319,2.38225,-11.04223,0.0,0.0,-16.66667,-1.44707,1.45259,-6.73306,-0.0,5.0,5.0,0.0,0.0,0.0,0.0,0.0,0.0,1.25,1.25,0.0,0.0,9.11
1.64,-1.98176,1.98933,-9.22093,9.22093,-2.38766,2.39678,-11.10956,0.0,0.0,-16.66667,-1.44707,1.45259,-6.73306,-0.0,5.0,5.0,0.0,0.0,0.0,0.0,0.0,0.0,1.25,1.25,0.0,0.0,9.22
1.65,-2.00578,2.01344,-9.3327,9.3327,-2.40213,2.41131,-11.17689,0.0,0.0,-16.66667,-1.44707,1.45259,-6.73306,-0.0,5.0,5.0,0.0,0.0,0.0,0.0,0.0,0.0,1.25,1.25,0.0,0.0,9.33
1.66,-2.02995,2.0377,-9.44514,9.44514,-2.4166,2.42583,-11.24422,0.0,0.0,-16.66667,-1.44707,1.45259,-6.73306,-0.0,5.0,5.0,0.0,0.0,0.0,0.0,0.0,0.0,1.25,1.25,0.0,0.0,9.45
1.67,-2.05426,2.0621,-9.55826,9.55826,-2.43107,2.44036,-11.31155,0.0,0.0,-16.66667,-1.44707,1.45259,-6.73306,-0.0,5.0,5.0,0.0,0.0,0.0,0.0,0.0,0.0,1.25,1.25,0.0,0.0,9.56
1.68,-2.07871,2.08665,-9.67205,9.67205,-2.44554,2.45488,-11.37888,0.0,0.0,-16.66667,-1.44707,1.45259,-6.73306,-0.0,5.0,5.0,0.0,0.0,0.0,0.0,0.0,0.0,1.25,1.25,0.0,0.0,9.67
1.69,-2.10331,2.11135,-9.78651,9.78651,-2.46001,2.46941,-11.44621,0.0,0.0,-16.66667,-1.44707,1.45259,-6.73306,-0.0,5.0,5.0,0.0,0.0,0.0,0.0,0.0,0.0,1.25,1.25,0.0,0.0,9.79
1.7,-2.12806,2.13619,-9.90165,9.90165,-2.47448,2.48394,-11.51354,0.0,0.0,-16.66667,-1.44707,1.45259,-6.73306,-0.0,5.0,5.0,0.0,0.0,0.0,0.0,0.0,0.0,1.25,1.25,0.0,0.0,9.9
1.71,-2.15295,2.16117,-10.01745,10.01745,-2.48896,2.49846,-11.58087,0.0,0.0,-16.66667,-1.44707,1.45259,-6.73306,-0.0,5.0,5.0,0.0,0.0,0.0,0.0,0.0,0.0,1.25,1.25,0.0,0.0,10.02
1.72,-2.17798,2.1863,-10.13394,10.13394,-2.50343,2.51299,-11.6482,0.0,0.0,-16.66667,-1.44707,1.45259,-6.73306,-0.0,5.0,5.0,0.0,0.0,0.0,0.0,0.0,0.0,1.25,1.25,0.0,0.0,10.13
1.73,-2.20316,2.21158,-10.25109,10.25109,-2.5179,2.52751,-11.71553,0.0,0.0,-16.66667,-1.44707,1.45259,-6.73306,-0.0,5.0,5.0,0.0,0.0,0.0,0.0,0.0,0.0,1.25,1.25,0.0,0.0,10.25
1.74,-2.22848,2.237,-10.36892,10.36892,-2.53237,2.54204,-11.78286,0.0,0.0,-16.66667,-1.44707,1.45259,-6.73306,-0.0,5.0,5.0,0.0,0.0,0.0,0.0,0.0,0.0,1.25,1.25,0.0,0.0,10.37
1.75,-2.25395,2.26256,-10.48742,10.48742,-2.54684,2.55657,-11.85019,0.0,0.0,-16.66667,-1.44707,1.45259,-6.73306,-0.0,5.0,5.0,0.0,0.0,0.0,0.0,0.0,0.0,1.25,1.25,0.0,0.0,10.49
1.76,-2.27956,2.28827,-10.6066,10.6066,-2.56131,2.57109,-11.91752,0.0,0.0,-16.66667,-1.44707,1.45259,-6.73306,-0.0,5.0,5.0,0.0,0.0,0.0,0.0,0.0,0.0,1.25,1.25,0.0,0.0,10.61
1.77,-2.30532,2.31413,-10.72645,10.72645,-2.57578,2.58562,-11.98486,0.0,0.0,-16.66667,-1.44707,1.45259,-6.73306,-0.0,5.0,5.0,0.0,0.0,0.0,0.0,0.0,0.0,1.25,1.25,0.0,0.0,10.73
1.78,-2.33122,2.34013,-10.84697,10.84697,-2.59025,2.60014,-12.05219,0.0,0.0,-16.66667,-1.44707,1.45259,-6.73306,-0.0,5.0,5.0,0.0,0.0,0.0,0.0,0.0,0.0,1.25,1.25,0.0,0.0,10.85
1.79,-2.35727,2.36628,-10.96816,10.96816,-2.60472,2.61467,-12.11952,0.0,0.0,-16.66667,-1.44707,1.45259,-6.73306,-0.0,5.0,5.0,0.0,0.0,0.0,0.0,0.0,0.0,1.25,1.25,0.0,0.0,10.97
1.8,-2.38346,2.39257,-11.09003,11.09003,-2.61919,2.6292,-12.18685,0.0,0.0,-16.66667,-1.44707,1.45259,-6.73306,-0.0,5.0,5.0,0.0,0.0,0.0,0.0,0.0,0.0,1.25,1.25,0.0,0.0,11.09
1.81,-2.4098,2.41901,-11.21257,11.21257,-2.63366,2.64372,-12.25418,0.0,0.0,-16.66667,-1.44707,1.45259,-6.73306,-0.0,5.0,5.0,0.0,0.0,0.0,0.0,0.0,0.0,1.25,1.25,0.0,0.0,11.21
1.82,-2.43628,2.44559,-11.33579,11.33579,-2.64813,2.65825,-12.32151,0.0,0.0,-16.66667,-1.44707,1.45259,-6.73306,-0.0,5.0,5.0,0.0,0.0,0.0,0.0,0.0,0.0,1.25,1.25,0.0,0.0,11.34
1.83,-2.46291,2.47232,-11.45968,11.45968,-2.6626,2.67277,-12.38884,0.0,0.0,-16.66667,-1.44707,1.45259,-6.73306,-0.0,5.0,5.0,0.0,0.0,0.0,0.0,0.0,0.0,1.25,1.25,0.0,0.0,11.46
1.84,-2.48968,2.49919,-11.58424,11.58424,-2.67707,2.6873,-12.45617,0.0,0.0,-16.66667,-1.44707,1.45259,-6.73306,-0.0,5.0,5.0,0.0,0.0,0.0,0.0,0.0,0.0,1.25,1.25,0.0,0.0,11.58
1.85,-2.51659,2.52621,-11.70947,11.70947,-2.69154,2.70183,-12.5235,0.0,0.0,-16.66667,-1.44707,1.45259,-6.73306,-0.0,5.0,5.0,0.0,0.0,0.0,0.0,0.0,0.0,1.25,1.25,0.0,0.0,11.71
1.86,-2.54365,2.55337,-11.83538,11.83538,-2.70602,2.71635,-12.59083,0.0,0.0,-16.66667,-1.44707,1.45259,-6.73306,-0.0,5.0,5.0,0.0,0.0,0.0,0.0,0.0,0.0,1.25,1.25,0.0,0.0,11.84
1.87,-2.57086,2.58068,-11.96196,11.96196,-2.72049,2.73088,-12.65816,0.0,0.0,-16.66667,-1.44707,1.45259,-6.73306,-0.0,5.0,5.0,0.0,0.0,0.0,0.0,0.0,0.0,1.25,1.25,0.0,0.0,11.96
1.88,-2.59821,2.60813,-12.08922,12.08922,-2.73496,2.7454,-12.72549,0.0,0.0,-16.66667,-1.44707,1.45259,-6.73306,-0.0,5.0,5.0,0.0,0.0,0.0,0.0,0.0,0.0,1.25,1.25,0.0,0.0,12.09
1.89,-2.6257,2.63573,-12.21715,12.21715,-2.74943,2.75993,-12.79282,0.0,0.0,-16.66667,-1.44707,1.45259,-6.73306,-0.0,5.0,5.0,0.0,0.0,0.0,0.0,0.0,0.0,1.25,1.25,0.0,0.0,12.22
1.9,-2.65334,2.66348,-12.34575,12.34575,-2.7639,2.77446,-12.86015,0.0,0.0,-16.66667,-1.44707,1.45259,-6.73306,-0.0,5.0,5.0,0.0,0.0,0.0,0.0,0.0,0.0,1.25,1.25,0.0,0.0,12.35
1.91,-2.68113,2.69137,-12.47502,12.47502,-2.77837,2.78898,-12.92748,0.0,0.0,-16.66667,-1.44707,1.45259,-6.73306,-0.0,5.0,5.0,0.0,0.0,0.0,0.0,0.0,0.0,1.25,1.25,0.0,0.0,12.48
1.92,-2.70905,2.7194,-12.60497,12.60497,-2.79284,2.80351,-12.99482,0.0,0.0,-16.66667,-1.44707,1.45259,-6.73306,-0.0,5.0,5.0,0.0,0.0,0.0,0.0,0.0,0.0,1.25,1.25,0.0,0.0,12.6
1.93,-2.73713,2.74758,-12.73559,12.73559,-2.80731,2.81803,-13.06215,0.0,0.0,-16.66667,-1.44707,1.45259,-6.73306,-0.0,5.0,5.0,0.0,0.0,0.0,0.0,0.0,0.0,1.25,1.25,0.0,0.0,12.74
1.94,-2.76534,2.77591,-12.86689,12.86689,-2.82178,2.83256,-13.12948,0.0,0.0,-16.66667,-1.44707,1.45259,-6.73306,-0.0,5.0,5.0,0.0,0.0,0.0,0.0,0.0,0.0,1.25,1.25,0.0,0.0,12.87
1.95,-2.79371,2.80438,-12.99885,12.99885,-2.83625,2.84709,-13.19681,0.0,0.0,-16.66667,-1.44707,1.45259,-6.73306,-0.0,5.0,5.0,0.0,0.0,0.0,0.0,0.0,0.0,1.25,1.25,0.0,0.0,13.0
1.96,-2.82221,2.833,-13.1315,13.1315,-2.85072,2.86161,-13.26414,0.0,0.0,-16.66667,-1.44707,1.45259,-6.73306,-0.0,5.0,5.0,0.0,0.0,0.0,0.0,0.0,0.0,1.25,1.25,0.0,0.0,13.13
1.97,-2.85087,2.86176,-13.26481,13.26481,-2.86519,2.87614,-13.33147,0.0,0.0,-16.66667,-1.44707,1.45259,-6.73306,-0.0,5.0,5.0,0.0,0.0,0.0,0.0,0.0,0.0,1.25,1.25,0.0,0.0,13.26
1.98,-2.87966,2.89066,-13.3988,13.3988,-2.87966,2.89066,-13.3988,0.0,0.0,-16.66667,-1.44707,1.45259,-6.73306,-0.0,5.0,5.0,0.0,0.0,0.0,0.0,0.0,0.0,1.25,1.25,0.0,0.0,13.4
1.99,-2.9086,2.91971,-13.53346,13.53346,-2.89413,2.90519,-13.46613,0.0,0.0,-16.66667,-1.44707,1.45259,-6.73306,-0.0,5.0,5.0,0.0,0.0,0.0,0.0,0.0,0.0,1.25,1.25,0.0,0.0,13.53
2.0,-2.93769,2.94891,-13.66879,13.66879,-2.9086,2.91971,-13.53346,0.0,0.0,-16.66667,-1.44707,1.45259,-6.73306,-0.0,5.0,5.0,0.0,0.0,0.0,0.0,0.0,0.0,1.25,1.25,0.0,0.0,13.67
2.01,-2.96692,2.97825,-13.8048,13.8048,-2.92308,2.93424,-13.60079,0.0,0.0,-16.66667,-1.44707,1.45259,-6.73306,-0.0,5.0,5.0,0.0,0.0,0.0,0.0,0.0,0.0,1.25,1.25,0.0,0.0,13.8
2.02,-2.9963,3.00774,-13.94148,13.94148,-2.93755,2.94877,-13.66812,0.0,0.0,-16.66667,-1.44707,1.45259,-6.73306,-0.0,5.0,5.0,0.0,0.0,0.0,0.0,0.0,0.0,1.25,1.25,0.0,0.0,13.94
2.03,-3.02582,3.03738,-14.07884,14.07884,-2.95202,2.96329,-13.73545,0.0,0.0,-16.66667,-1.44707,1.45259,-6.73306,-0.0,5.0,5.0,0.0,0.0,0.0,0.0,0.0,0.0,1.25,1.25,0.0,0.0,14.08
2.04,-3.05548,3.06715,-14.21687,14.21687,-2.96649,2.97782,-13.80278,0.0,0.0,-16.66667,-1.44707,1.45259,-6.73306,-0.0,5.0,5.0,0.0,0.0,0.0,0.0,0.0,0.0,1.25,1.25,0.0,0.0,14.22
2.05,-3.08529,3.09708,-14.35557,14.35557,-2.98096,2.99234,-13.87011,0.0,0.0,-16.66667,-1.44707,1.45259,-6.73306,-0.0,5.0,5.0,0.0,0.0,0.0,0.0,0.0,0.0,1.25,1.25,0.0,0.0,14.36
2.06,-3.11525,3.12715,-14.49494,14.49494,-2.99543,3.00687,-13.93744,0.0,0.0,-16.66667,-1.44707,1.45259,-6.73306,-0.0,5.0,5.0,0.0,0.0,0.0,0.0,0.0,0.0,1.25,1.25,0.0,0.0,14.49
2.07,-3.14534,3.15736,-14.63499,14.63499,-3.0099,3.0214,-14.00477,0.0,0.0,-16.66667,-1.44707,1.45259,-6.73306,-0.0,5.0,5.0,0.0,0.0,0.0,0.0,0.0,0.0,1.25,1.25,0.0,0.0,14.63
2.08,-3.17559,3.18772,-14.77571,14.77571,-3.02437,3.03592,-14.07211,0.0,0.0,-16.66667,-1.44707,1.45259,-6.73306,-0.0,5.0,5.0,0.0,0.0,0.0,0.0,0.0,0.0,1.25,1.25,0.0,0.0,14.78
2.09,-3.20598,3.21822,-14.91711,14.91711,-3.03884,3.05045,-14.13944,0.0,0.0,-16.66667,-1.44707,1.45259,-6.73306,-0.0,5.0,5.0,0.0,0.0,0.0,0.0,0.0,0.0,1.25,1.25,0.0,0.0,14.92
2.1,-3.23651,3.24887,-15.05917,15.05917,-3.05331,3.06497,-14.20677,0.0,0.0,-16.66667,-1.44707,1.45259,-6.73306,-0.0,5.0,5.0,0.0,0.0,0.0,0.0,0.0,0.0,1.25,1.25,0.0,0.0,15.06
2.11,-3.26719,3.27967,-15.20191,15.20191,-3.06778,3.0795,-14.2741,0.0,0.0,-16.66667,-1.44707,1.45259,-6.73306,-0.0,5.0,5.0,0.0,0.0,0.0,0.0,0.0,0.0,1.25,1.25,0.0,0.0,15.2
2.12,-3.29801,3.31061,-15.34533,15.34533,-3.08225,3.09403,-14.34143,0.0,0.0,-16.66667,-1.44707,1.45259,-6.73306,-0.0,5.0,5.0,0.0,0.0,0.0,0.0,0.0,0.0,1.25,1.25,0.0,0.0,15.35
2.13,-3.32898,3.34169,-15.48942,15.48942,-3.09672,3.10855,-14.40876,0.0,0.0,-16.66667,-1.44707,1.45259,-6.73306,-0.0,5.0,5.0,0.0,0.0,0.0,0.0,0.0,0.0,1.25,1.25,0.0,0.0,15.49
2.14,-3.36009,3.37292,-15.63418,15.63418,-3.11119,3.12308,-14.47609,0.0,0.0,-16.66667,-1.44707,1.45259,-6.73306,-0.0,5.0,5.0,0.0,0.0,0.0,0.0,0.0,0.0,1.25,1.25,0.0,0.0,15.63
2.15,-3.39135,3.4043,-15.77961,15.77961,-3.12566,3.1376,-14.54342,0.0,0.0,-16.66667,-1.44707,1.45259,-6.73306,-0.0,5.0,5.0,0.0,0.0,0.0,0.0,0.0,0.0,1.25,1.25,0.0,0.0,15.78
2.16,-3.42275,3.43582,-15.92572,15.92572,-3.14014,3.15213,-14.61075,0.0,0.0,-16.66667,-1.44707,1.45259,-6.73306,-0.0,5.0,5.0,0.0,0.0,0.0,0.0,0.0,0.0,1.25,1.25,0.0,0.0,15.93
2.17,-3.45429,3.46749,-16.0725,16.0725,-3.15461,3.16666,-14.67808,0.0,0.0,-16.66667,-1.44707,1.45259,-6.73306,-0.0,5.0,5.0,0.0,0.0,0.0,0.0,0.0,0.0,1.25,1.25,0.0,0.0,16.07
2.18,-3.48598,3.4993,-16.21995,16.21995,-3.16908,3.18118,-14.74541,0.0,0.0,-16.66667,-1.44707,1.45259,-6.73306,-0.0,5.0,5.0,0.0,0.0,0.0,0.0,0.0,0.0,1.25,1.25,0.0,0.0,16.22
2.19,-3.51782,3.53126,-16.36808,16.36808,-3.18355,3.19571,-14.81274,0.0,0.0,-16.66667,-1.44707,1.45259,-6.73306,-0.0,5.0,5.0,0.0,0.0,0.0,0.0,0.0,0.0,1.25,1.25,0.0,0.0,16.37
2.2,-3.5498,3.56336,-16.51688,16.51688,-3.19802,3.21023,-14.88007,0.0,0.0,-16.66667,-1.44707,1.45259,-6.73306,-0.0,5.0,5.0,0.0,0.0,0.0,0.0,0.0,0.0,1.25,1.25,0.0,0.0,16.52
2.21,-3.58192,3.59561,-16.66636,16.66636,-3.21249,3.22476,-14.9474,0.0,0.0,-16.66667,-1.44707,1.45259,-6.73306,-0.0,5.0,5.0,0.0,0.0,0.0,0.0,0.0,0.0,1.25,1.25,0.0,0.0,16.67
2.22,-3.61419,3.628,-16.8165,16.8165,-3.22696,3.23929,-15.01473,0.0,0.0,-16.66667,-1.44707,1.45259,-6.73306,-0.0,5.0,5.0,0.0,0.0,0.0,0.0,0.0,0.0,1.25,1.25,0.0,0.0,16.82
2.23,-3.64661,3.66054,-16.96732,16.96732,-3.24143,3.25381,-15.08207,0.0,0.0,-16.66667,-1.44707,1.45259,-6.73306,-0.0,5.0,5.0,0.0,0.0,0.0,0.0,0.0,0.0,1.25,1.25,0.0,0.0,16.97
2.24,-3.67917,3.69322,-17.11882,17.11882,-3.2559,3.26834,-15.1494,0.0,0.0,-16.66667,-1.44707,1.45259,-6.73306,-0.0,5.0,5.0,0.0,0.0,0.0,0.0,0.0,0.0,1.25,1.25,0.0,0.0,17.12
2.25,-3.71187,3.72605,-17.27098,17.27098,-3.27037,3.28286,-15.21673,0.0,0.0,-16.66667,-1.44707,1.45259,-6.73306,-0.0,5.0,5.0,0.0,0.0,0.0,0.0,0.0,0.0,1.25,1.25,0.0,0.0,17.27
2.26,-3.74472,3.75902,-17.42383,17.42383,-3.28484,3.29739,-15.28406,0.0,0.0,-16.66667,-1.44707,1.45259,-6.73306,-0.0,5.0,5.0,0.0,0.0,0.0,0.0,0.0,0.0,1.25,1.25,0.0,0.0,17.42
2.27,-3.77771,3.79214,-17.57734,17.57734,-3.29931,3.31192,-15.35139,0.0,0.0,-16.66667,-1.44707,1.45259,-6.73306,-0.0,5.0,5.0,0.0,0.0,0.0,0.0,0.0,0.0,1.25,1.25,0.0,0.0,17.58
2.28,-3.81085,3.82541,-17.73153,17.73153,-3.31378,3.32644,-15.41872,0.0,0.0,-16.66667,-1.44707,1.45259,-6.73306,-0.0,5.0,5.0,0.0,0.0,0.0,0.0,0.0,0.0,1.25,1.25,0.0,0.0,17.73
2.29,-3.84413,3.85882,-17.88639,17.88639,-3.32825,3.34097,-15.48605,0.0,0.0,-16.66667,-1.44707,1.45259,-6.73306,-0.0,5.0,5.0,0.0,0.0,0.0,0.0,0.0,0.0,1.25,1.25,0.0,0.0,17.89
2.3,-3.87756,3.89237,-18.04192,18.04192,-3.34272,3.35549,-15.55338,0.0,0.0,-16.66667,-1.44707,1.45259,-6.73306,-0.0,5.0,5.0,0.0,0.0,0.0,0.0,0.0,0.0,1.25,1.25,0.0,0.0,18.04
2.31,-3.91113,3.92607,-18.19813,18.19813,-3.3572,3.37002,-15.62071,0.0,0.0,-16.66667,-1.44707,1.45259,-6.73306,-0.0,5.0,5.0,0.0,0.0,0.0,0.0,0.0,0.0,1.25,1.25,0.0,0.0,18.2
2.32,-3.94485,3.95992,-18.35501,18.35501,-3.37167,3.38455,-15.68804,0.0,0.0,-16.66667,-1.44707,1.45259,-6.73306,-0.0,5.0,5.0,0.0,0.0,0.0,0.0,0.0,0.0,1.25,1.25,0.0,0.0,18.36
2.33,-3.97871,3.99391,-18.51256,18.51256,-3.38614,3.39907,-15.75537,0.0,0.0,-16.66667,-1.44707,1.45259,-6.73306,-0.0,5.0,5.0,0.0,0.0,0.0,0.0,0.0,0.0,1.25,1.25,0.0,0.0,18.51
2.34,-4.01272,4.02804,-18.67079,18.67079,-3.40061,3.4136,-15.8227,0.0,0.0,-16.66667,-1.44707,1.45259,-6.73306,-0.0,5.0,5.0,0.0,0.0,0.0,0.0,0.0,0.0,1.25,1.25,0.0,0.0,18.67
2.35,-4.04687,4.06233,-18.82969,18.82969,-3.41508,3.42812,-15.89003,0.0,0.0,-16.66667,-1.44707,1.45259,-6.73306,-0.0,5.0,5.0,0.0,0.0,0.0,0.0,0.0,0.0,1.25,1.25,0.0,0.0,18.83
2.36,-4.08116,4.09675,-18.98926,18.98926,-3.42955,3.44265,-15.95736,0.0,0.0,-16.66667,-1.44707,1.45259,-6.73306,-0.0,5.0,5.0,0.0,0.0,0.0,0.0,0.0,0.0,1.25,1.25,0.0,0.0,18.99
2.37,-4.1156,4.13132,-19.14951,19.14951,-3.44402,3.45717,-16.02469,0.0,0.0,-16.66667,-1.44707,1.45259,-6.73306,-0.0,5.0,5.0,0.0,0.0,0.0,0.0,0.0,0.0,1.25,1.25,0.0,0.0,19.15
2.38,-4.15019,4.16604,-19.31043,19.31043,-3.45849,3.4717,-16.09202,0.0,0.0,-16.66667,-1.44707,1.45259,-6.73306,-0.0,5.0,5.0,0.0,0.0,0.0,0.0,0.0,0.0,1.25,1.25,0.0,0.0,19.31
2.39,-4.18492,4.2009,-19.47202,19.47202,-3.47296,3.48623,-16.15936,0.0,0.0,-16.66667,-1.44707,1.45259,-6.73306,-0.0,5.0,5.0,0.0,0.0,0.0,0.0,0.0,0.0,1.25,1.25,0.0,0.0,19.47
2.4,-4.21979,4.23591,-19.63429,19.63429,-3.48743,3.50075,-16.22669,0.0,0.0,-16.66667,-1.44707,1.45259,-6.73306,-0.0,5.0,5.0,0.0,0.0,0.0,0.0,0.0,0.0,1.25,1.25,0.0,0.0,19.63
2.41,-4.25481,4.27106,-19.79723,19.79723,-3.5019,3.51528,-16.29402,0.0,0.0,-16.66667,-1.44707,1.45259,-6.73306,-0.0,5.0,5.0,0.0,0.0,0.0,0.0,0.0,0.0,1.25,1.25,0.0,0.0,19.8
2.42,-4.28997,4.30636,-19.96084,19.96084,-3.51637,3.5298,-16.36135,0.0,0.0,-16.66667,-1.44707,1.45259,-6.73306,-0.0,5.0,5.0,0.0,0.0,0.0,0.0,0.0,0.0,1.25,1.25,0.0,0.0,19.96
2.43,-4.32528,4.3418,-20.12513,20.12513,-3.53084,3.54433,-16.42868,0.0,0.0,-16.66667,-1.44707,1.45259,-6.73306,-0.0,5.0,5.0,0.0,0.0,0.0,0.0,0.0,0.0,1.25,1.25,0.0,0.0,20.13
2.44,-4.36074,4.37739,-20.29009,20.29009,-3.54531,3.55886,-16.49601,0.0,0.0,-16.66667,-1.44707,1.45259,-6.73306,-0.0,5.0,5.0,0.0,0.0,0.0,0.0,0.0,0.0,1.25,1.25,0.0,0.0,20.29
2.45,-4.39633,4.41313,-20.45572,20.45572,-3.55978,3.57338,-16.56334,0.0,0.0,-16.66667,-1.44707,1.45259,-6.73306,-0.0,5.0,5.0,0.0,0.0,0.0,0.0,0.0,0.0,1.25,1.25,0.0,0.0,20.46
2.46,-4.43208,4.44901,-20.62203,20.62203,-3.57426,3.58791,-16.63067,0.0,0.0,-16.66667,-1.44707,1.45259,-6.73306,-0.0,5.0,5.0,0.0,0.0,0.0,0.0,0.0,0.0,1.25,1.25,0.0,0.0,20.62
2.47,-4.46796,4.48503,-20.78901,20.78901,-3.58873,3.60243,-16.698,0.0,0.0,-16.66667,-1.44707,1.45259,-6.73306,-0.0,5.0,5.0,0.0,0.0,0.0,0.0,0.0,0.0,1.25,1.25,0.0,0.0,20.79
2.48,-4.504,4.5212,-20.95666,20.95666,-3.6032,3.61696,-16.76533,0.0,0.0,-16.66667,-1.44707,1.45259,-6.73306,-0.0,5.0,5.0,0.0,0.0,0.0,0.0,0.0,0.0,1.25,1.25,0.0,0.0,20.96
2.49,-4.54017,4.55752,-21.12499,21.12499,-3.61767,3.63149,-16.83266,0.0,0.0,-16.66667,-1.44707,1.45259,-6.73306,-0.0,5.0,5.0,0.0,0.0,0.0,0.0,0.0,0.0,1.25,1.25,0.0,0.0,21.12
2.5,-4.57649,4.59398,-21.29399,21.29399,-3.63214,3.64601,-16.89999,0.0,0.0,-16.66667,-1.44707,1.45259,-6.73306,-0.0,5.0,5.0,0.0,0.0,0.0,0.0,0.0,0.0,1.25,1.25,0.0,0.0,21.29
2.51,-4.61296,4.63058,-21.46366,21.46366,-3.64661,3.66054,-16.96732,0.0,0.0,-16.66667,-1.44707,1.45259,-6.73306,-0.0,5.0,5.0,0.0,0.0,0.0,0.0,0.0,0.0,1.25,1.25,0.0,0.0,21.46
2.52,-4.64957,4.66733,-21.63401,21.63401,-3.66108,3.67506,-17.03465,0.0,0.0,-16.66667,-1.44707,1.45259,-6.73306,-0.0,5.0,5.0,0.0,0.0,0.0,0.0,0.0,0.0,1.25,1.25,0.0,0.0,21.63
2.53,-4.68633,4.70423,-21.80503,21.80503,-3.67555,3.68959,-17.10198,0.0,0.0,-16.66667,-1.44707,1.45259,-6.73306,-0.0,5.0,5.0,0.0,0.0,0.0,0.0,0.0,0.0,1.25,1.25,0.0,0.0,21.81
2.54,-4.72323,4.74127,-21.97672,21.97672,-3.69002,3.70412,-17.16932,0.0,0.0,-16.66667,-1.44707,1.45259,-6.73306,-0.0,5.0,5.0,0.0,0.0,0.0,0.0,0.0,0.0,1.25,1.25,0.0,0.0,21.98
2.55,-4.76027,4.77845,-22.14909,22.14909,-3.70449,3.71864,-17.23665,0.0,0.0,-16.66667,-1.44707,1.45259,-6.73306,-0.0,5.0,5.0,0.0,0.0,0.0,0.0,0.0,0.0,1.25,1.25,0.0,0.0,22.15
2.56,-4.79746,4.81579,-22.32213,22.32213,-3.71896,3.73317,-17.30398,0.0,0.0,-16.66667,-1.44707,1.45259,-6.73306,-0.0,5.0,5.0,0.0,0.0,0.0,0.0,0.0,0.0,1.25,1.25,0.0,0.0,22.32
2.57,-4.8348,4.85326,-22.49584,22.49584,-3.73343,3.74769,-17.37131,0.0,0.0,-16.66667,-1.44707,1.45259,-6.73306,-0.0,5.0,5.0,0.0,0.0,0.0,0.0,0.0,0.0,1.25,1.25,0.0,0.0,22.5
2.58,-4.87227,4.89089,-22.67023,22.67023,-3.7479,3.76222,-17.43864,0.0,0.0,-16.66667,-1.44707,1.45259,-6.73306,-0.0,5.0,5.0,0.0,0.0,0.0,0.0,0.0,0.0,1.25,1.25,0.0,0.0,22.67
2.59,-4.9099,4.92865,-22.84529,22.84529,-3.76237,3.77675,-17.50597,0.0,0.0,-16.66667,-1.44707,1.45259,-6.73306,-0.0,5.0,5.0,0.0,0.0,0.0,0.0,0.0,0.0,1.25,1.25,0.0,0.0,22.85
2.6,-4.94767,4.96657,-23.02102,23.02102,-3.77684,3.79127,-17.5733,0.0,0.0,-16.66667,-1.44707,1.45259,-6.73306,-0.0,5.0,5.0,0.0,0.0,0.0,0.0,0.0,0.0,1.25,1.25,0.0,0.0,23.02
2.61,-4.98558,5.00462,-23.19743,23.19743,-3.79132,3.8058,-17.64063,0.0,0.0,-16.66667,-1.44707,1.45259,-6.73306,-0.0,5.0,5.0,0.0,0.0,0.0,0.0,0.0,0.0,1.25,1.25,0.0,0.0,23.2
2.62,-5.02364,5.04283,-23.37451,23.37451,-3.80579,3.82032,-17.70796,0.0,0.0,-16.66667,-1.44707,1.45259,-6.73306,-0.0,5.0,5.0,0.0,0.0,0.0,0.0,0.0,0.0,1.25,1.25,0.0,0.0,23.37
2.63,-5.06184,5.08118,-23.55226,23.55226,-3.82026,3.83485,-17.77529,0.0,0.0,-16.66667,-1.44707,1.45259,-6.73306,-0.0,5.0,5.0,0.0,0.0,0.0,0.0,0.0,0.0,1.25,1.25,0.0,0.0,23.55
2.64,-5.10019,5.11967,-23.73069,23.73069,-3.83473,3.84938,-17.84262,0.0,0.0,-16.66667,-1.44707,1.45259,-6.73306,-0.0,5.0,5.0,0.0,0.0,0.0,0.0,0.0,0.0,1.25,1.25,0.0,0.0,23.73
2.65,-5.13868,5.15831,-23.90979,23.90979,-3.8492,3.8639,-17.90995,0.0,0.0,-16.66667,-1.44707,1.45259,-6.73306,-0.0,5.0,5.0,0.0,0.0,0.0,0.0,0.0,0.0,1.25,1.25,0.0,0.0,23.91
2.66,-5.17732,5.19709,-24.08956,24.08956,-3.86367,3.87843,-17.97728,0.0,0.0,-16.66667,-1.44707,1.45259,-6.73306,-0.0,5.0,5.0,0.0,0.0,0.0,0.0,0.0,0.0,1.25,1.25,0.0,0.0,24.09
2.67,-5.2161,5.23602,-24.27001,24.27001,-3.87814,3.89295,-18.04461,0.0,0.0,-16.66667,-1.44707,1.45259,-6.73306,-0.0,5.0,5.0,0.0,0.0,0.0,0.0,0.0,0.0,1.25,1.25,0.0,0.0,24.27
2.68,-5.25502,5.2751,-24.45112,24.45112,-3.89261,3.90748,-18.11194,0.0,0.0,-16.66667,-1.44707,1.45259,-6.73306,-0.0,5.0,5.0,0.0,0.0,0.0,0.0,0.0,0.0,1.25,1.25,0.0,0.0,24.45
2.69,-5.29409,5.31432,-24.63292,24.63292,-3.90708,3.92201,-18.17928,0.0,0.0,-16.66667,-1.44707,1.45259,-6.73306,-0.0,5.0,5.0,0.0,0.0,0.0,0.0,0.0,0.0,1.25,1.25,0.0,0.0,24.63
2.7,-5.33331,5.35368,-24.81538,24.81538,-3.92155,3.93653,-18.24661,0.0,0.0,-16.66667,-1.44707,1.45259,-6.73306,-0.0,5.0,5.0,0.0,0.0,0.0,0.0,0.0,0.0,1.25,1.25,0.0,0.0,24.82
2.71,-5.37267,5.39319,-24.99852,24.99852,-3.93602,3.95106,-18.31394,0.0,0.0,-16.66667,-1.44707,1.45259,-6.73306,-0.0,5.0,5.0,0.0,0.0,0.0,0.0,0.0,0.0,1.25,1.25,0.0,0.0,25.0
2.72,-5.41218,5.43285,-25.18234,25.18234,-3.95049,3.96558,-18.38127,0.0,0.0,-16.66667,-1.44707,1.45259,-6.73306,-0.0,5.0,5.0,0.0,0.0,0.0,0.0,0.0,0.0,1.25,1.25,0.0,0.0,25.18
2.73,-5.45182,5.47265,-25.36682,25.36682,-3.96496,3.98011,-18.4486,0.0,0.0,-16.66667,-1.44707,1.45259,-6.73306,-0.0,5.0,5.0,0.0,0.0,0.0,0.0,0.0,0.0,1.25,1.25,0.0,0.0,25.37
2.74,-5.49162,5.5126,-25.55198,25.55198,-3.97943,3.99463,-18.51593,0.0,0.0,-16.66667,-1.44707,1.45259,-6.73306,-0.0,5.0,5.0,0.0,0.0,0.0,0.0,0.0,0.0,1.25,1.25,0.0,0.0,25.55
2.75,-5.53156,5.55269,-25.73781,25.73781,-3.9939,4.00916,-18.58326,0.0,0.0,-16.66667,-1.44707,1.45259,-6.73306,-0.0,5.0,5.0,0.0,0.0,0.0,0.0,0.0,0.0,1.25,1.25,0.0,0.0,25.74
2.76,-5.57164,5.59292,-25.92432,25.92432,-4.00838,4.02369,-18.65059,0.0,0.0,-16.66667,-1.44707,1.45259,-6.73306,-0.0,5.0,5.0,0.0,0.0,0.0,0.0,0.0,0.0,1.25,1.25,0.0,0.0,25.92
2.77,-5.61187,5.63331,-26.1115,26.1115,-4.02285,4.03821,-18.71792,0.0,0.0,-16.66667,-1.44707,1.45259,-6.73306,-0.0,5.0,5.0,0.0,0.0,0.0,0.0,0.0,0.0,1.25,1.25,0.0,0.0,26.11
2.78,-5.65224,5.67383,-26.29935,26.29935,-4.03732,4.05274,-18.78525,0.0,0.0,-16.66667,-1.44707,1.45259,-6.73306,-0.0,5.0,5.0,0.0,0.0,0.0,0.0,0.0,0.0,1.25,1.25,0.0,0.0,26.3
2.79,-5.69276,5.71451,-26.48788,26.48788,-4.05179,4.06726,-18.85258,0.0,0.0,-16.66667,-1.44707,1.45259,-6.73306,-0.0,5.0,5.0,0.0,0.0,0.0,0.0,0.0,0.0,1.25,1.25,0.0,0.0,26.49
2.8,-5.73342,5.75532,-26.67708,26.67708,-4.06626,4.08179,-18.91991,0.0,0.0,-16.66667,-1.44707,1.45259,-6.73306,-0.0,5.0,5.0,0.0,0.0,0.0,0.0,0.0,0.0,1.25,1.25,0.0,0.0,26.68
2.81,-5.77423,5.79629,-26.86695,26.86695,-4.08073,4.09632,-18.98724,0.0,0.0,-16.66667,-1.44707,1.45259,-6.73306,-0.0,5.0,5.0,0.0,0.0,0.0,0.0,0.0,0.0,1.25,1.25,0.0,0.0,26.87
2.82,-5.81518,5.8374,-27.05749,27.05749,-4.0952,4.11084,-19.05457,0.0,0.0,-16.66667,-1.44707,1.45259,-6.73306,-0.0,5.0,5.0,0.0,0.0,0.0,0.0,0.0,0.0,1.25,1.25,0.0,0.0,27.06
2.83,-5.85628,5.87865,-27.24871,27.24871,-4.10967,4.12537,-19.1219,0.0,0.0,-16.66667,-1.44707,1.45259,-6.73306,-0.0,5.0,5.0,0.0,0.0,0.0,0.0,0.0,0.0,1.25,1.25,0.0,0.0,27.25
2.84,-5.89752,5.92005,-27.44061,27.44061,-4.12414,4.13989,-19.18923,0.0,0.0,-16.66667,-1.44707,1.45259,-6.73306,-0.0,5.0,5.0,0.0,0.0,0.0,0.0,0.0,0.0,1.25,1.25,0.0,0.0,27.44
2.85,-5.93891,5.96159,-27.63317,27.63317,-4.13861,4.15442,-19.25657,0.0,0.0,-16.66667,-1.44707,1.45259,-6.73306,-0.0,5.0,5.0,0.0,0.0,0.0,0.0,0.0,0.0,1.25,1.25,0.0,0.0,27.63
2.86,-5.98044,6.00328,-27.82641,27.82641,-4.15308,4.16895,-19.3239,0.0,0.0,-16.66667,-1.44707,1.45259,-6.73306,-0.0,5.0,5.0,0.0,0.0,0.0,0.0,0.0,0.0,1.25,1.25,0.0,0.0,27.83
2.87,-6.02211,6.04512,-28.02032,28.02032,-4.16755,4.18347,-19.39123,0.0,0.0,-16.66667,-1.44707,1.45259,-6.73306,-0.0,5.0,5.0,0.0,0.0,0.0,0.0,0.0,0.0,1.25,1.25,0.0,0.0,28.02
2.88,-6.06393,6.0871,-28.21491,28.21491,-4.18202,4.198,-19.45856,0.0,0.0,-16.66667,-1.44707,1.45259,-6.73306,-0.0,5.0,5.0,0.0,0.0,0.0,0.0,0.0,0.0,1.25,1.25,0.0,0.0,28.21
2.89,-6.1059,6.12922,-28.41017,28.41017,-4.19649,4.21252,-19.52589,0.0,0.0,-16.66667,-1.44707,1.45259,-6.73306,-0.0,5.0,5.0,0.0,0.0,0.0,0.0,0.0,0.0,1.25,1.25,0.0,0.0,28.41
2.9,-6.14801,6.17149,-28.6061,28.6061,-4.21096,4.22705,-19.59322,0.0,0.0,-16.66667,-1.44707,1.45259,-6.73306,-0.0,5.0,5.0,0.0,0.0,0.0,0.0,0.0,0.0,1.25,1.25,0.0,0.0,28.61
2.91,-6.19026,6.21391,-28.8027,28.8027,-4.22544,4.24158,-19.66055,0.0,0.0,-16.66667,-1.44707,1.45259,-6.73306,-0.0,5.0,5.0,0.0,0.0,0.0,0.0,0.0,0.0,1.25,1.25,0.0,0.0,28.8
2.92,-6.23266,6.25647,-28.99998,28.99998,-4.23991,4.2561,-19.72788,0.0,0.0,-16.66667,-1.44707,1.45259,-6.73306,-0.0,5.0,5.0,0.0,0.0,0.0,0.0,0.0,0.0,1.25,1.25,0.0,0.0,29.0
2.93,-6.27521,6.29918,-29.19794,29.19794,-4.25438,4.27063,-19.79521,0.0,0.0,-16.66667,-1.44707,1.45259,-6.73306,-0.0,5.0,5.0,0.0,0.0,0.0,0.0,0.0,0.0,1.25,1.25,0.0,0.0,29.2
2.94,-6.31789,6.34203,-29.39656,29.39656,-4.26885,4.28515,-19.86254,0.0,0.0,-16.66667,-1.44707,1.45259,-6.73306,-0.0,5.0,5.0,0.0,0.0,0.0,0.0,0.0,0.0,1.25,1.25,0.0,0.0,29.4
2.95,-6.36073,6.38502,-29.59586,29.59586,-4.28332,4.29968,-19.92987,0.0,0.0,-16.66667,-1.44707,1.45259,-6.73306,-0.0,5.0,5.0,0.0,0.0,0.0,0.0,0.0,0.0,1.25,1.25,0.0,0.0,29.6
2.96,-6.40371,6.42817,-29.79583,29.79583,-4.29779,4.31421,-19.9972,0.0,0.0,-16.66667,-1.44707,1.45259,-6.73306,-0.0,5.0,5.0,0.0,0.0,0.0,0.0,0.0,0.0,1.25,1.25,0.0,0.0,29.8
2.97,-6.44683,6.47145,-29.99648,29.99648,-4.31226,4.32873,-20.06453,0.0,0.0,-16.66667,-1.44707,1.45259,-6.73306,-0.0,5.0,5.0,0.0,0.0,0.0,0.0,0.0,0.0,1.25,1.25,0.0,0.0,30.0
2.98,-6.4901,6.51489,-30.1978,30.1978,-4.32673,4.34326,-20.13186,0.0,0.0,-16.66667,-1.44707,1.45259,-6.73306,-0.0,5.0,5.0,0.0,0.0,0.0,0.0,0.0,0.0,1.25,1.25,0.0,0.0,30.2
2.99,-6.53351,6.55846,-30.39979,30.39979,-4.3412,4.35778,-20.19919,0.0,0.0,-16.66667,-1.44707,1.45259,-6.73306,-0.0,5.0,5.0,0.0,0.0,0.0,0.0,0.0,0.0,1.25,1.25,0.0,0.0,30.4
3.0,-6.57706,6.60219,-30.60245,30.60245,-4.35567,4.37231,-20.26653,0.0,0.0,-16.66667,-1.44707,1.45259,-6.73306,-0.0,5.0,5.0,0.0,0.0,0.0,0.0,0.0,0.0,1.25,1.25,0.0,0.0,30.6
3.01,-6.62077,6.64606,-30.80579,30.80579,-4.37014,4.38684,-20.33386,0.0,0.0,-16.66667,-1.44707,1.45259,-6.73306,-0.0,5.0,5.0,0.0,0.0,0.0,0.0,0.0,0.0,1.25,1.25,0.0,0.0,30.81
3.02,-6.66461,6.69007,-31.0098,31.0098,-4.38461,4.40136,-20.40119,0.0,0.0,-16.66667,-1.44707,1.45259,-6.73306,-0.0,5.0,5.0,0.0,0.0,0.0,0.0,0.0,0.0,1.25,1.25,0.0,0.0,31.01
3.03,-6.7086,6.73423,-31.21449,31.21449,-4.39908,4.41589,-20.46852,0.0,0.0,-16.66667,-1.44707,1.45259,-6.73306,-0.0,5.0,5.0,0.0,0.0,0.0,0.0,0.0,0.0,1.25,1.25,0.0,0.0,31.21
3.04,-6.75274,6.77853,-31.41985,31.41985,-4.41355,4.43041,-20.53585,0.0,0.0,-16.66667,-1.44707,1.45259,-6.73306,-0.0,5.0,5.0,0.0,0.0,0.0,0.0,0.0,0.0,1.25,1.25,0.0,0.0,31.42
3.05,-6.79702,6.82298,-31.62588,31.62588,-4.42802,4.44494,-20.60318,0.0,0.0,-16.66667,-1.44707,1.45259,-6.73306,-0.0,5.0,5.0,0.0,0.0,0.0,0.0,0.0,0.0,1.25,1.25,0.0,0.0,31.63
3.06,-6.84144,6.86758,-31.83258,31.83258,-4.4425,4.45947,-20.67051,0.0,0.0,-16.66667,-1.44707,1.45259,-6.73306,-0.0,5.0,5.0,0.0,0.0,0.0,0.0,0.0,0.0,1.25,1.25,0.0,0.0,31.83
3.07,-6.88601,6.91232,-32.03996,32.03996,-4.45697,4.47399,-20.73784,0.0,0.0,-16.66667,-1.44707,1.45259,-6.73306,-0.0,5.0,5.0,0.0,0.0,0.0,0.0,0.0,0.0,1.25,1.25,0.0,0.0,32.04
3.08,-6.93073,6.9572,-32.24801,32.24801,-4.47144,4.48852,-20.80517,0.0,0.0,-16.66667,-1.44707,1.45259,-6.73306,-0.0,5.0,5.0,0.0,0.0,0.0,0.0,0.0,0.0,1.25,1.25,0.0,0.0,32.25
3.09,-6.97559,7.00223,-32.45674,32.45674,-4.48591,4.50304,-20.8725,0.0,0.0,-16.66667,-1.44707,1.45259,-6.73306,-0.0,5.0,5.0,0.0,0.0,0.0,0.0,0.0,0.0,1.25,1.25,0.0,0.0,32.46
3.1,-7.02059,7.04741,-32.66614,32.66614,-4.50038,4.51757,-20.93983,0.0,0.0,-16.66667,-1.44707,1.45259,-6.73306,-0.0,5.0,5.0,0.0,0.0,0.0,0.0,0.0,0.0,1.25,1.25,0.0,0.0,32.67
3.11,-7.06574,7.09273,-32.87621,32.87621,-4.51485,4.53209,-21.00716,0.0,0.0,-16.66667,-1.44707,1.45259,-6.73306,-0.0,5.0,5.0,0.0,0.0,0.0,0.0,0.0,0.0,1.25,1.25,0.0,0.0,32.88
3.12,-7.11103,7.13819,-33.08695,33.08695,-4.52932,4.54662,-21.07449,0.0,0.0,-16.66667,-1.44707,1.45259,-6.73306,-0.0,5.0,5.0,0.0,0.0,0.0,0.0,0.0,0.0,1.25,1.25,0.0,0.0,33.09
3.13,-7.15647,7.18381,-33.29837,33.29837,-4.54379,4.56115,-21.14182,0.0,0.0,-16.66667,-1.44707,1.45259,-6.73306,-0.0,5.0,5.0,0.0,0.0,0.0,0.0,0.0,0.0,1.25,1.25,0.0,0.0,33.3
3.14,-7.20205,7.22956,-33.51046,33.51046,-4.55826,4.57567,-21.20915,0.0,0.0,-16.66667,-1.44707,1.45259,-6.73306,-0.0,5.0,5.0,0.0,0.0,0.0,0.0,0.0,0.0,1.25,1.25,0.0,0.0,33.51
3.15,-7.24778,7.27546,-33.72323,33.72323,-4.57273,4.5902,-21.27648,0.0,0.0,-16.66667,-1.44707,1.45259,-6.73306,-0.0,5.0,5.0,0.0,0.0,0.0,0.0,0.0,0.0,1.25,1.25,0.0,0.0,33.72
3.16,-7.29365,7.32151,-33.93667,33.93667,-4.5872,4.60472,-21.34382,0.0,0.0,-16.66667,-1.44707,1.45259,-6.73306,-0.0,5.0,5.0,0.0,0.0,0.0,0.0,0.0,0.0,1.25,1.25,0.0,0.0,33.94
3.17,-7.33967,7.3677,-34.15078,34.15078,-4.60167,4.61925,-21.41115,0.0,0.0,-16.66667,-1.44707,1.45259,-6.73306,-0.0,5.0,5.0,0.0,0.0,0.0,0.0,0.0,0.0,1.25,1.25,0.0,0.0,34.15
3.18,-7.38583,7.41404,-34.36556,34.36556,-4.61614,4.63378,-21.47848,0.0,0.0,-16.66667,-1.44707,1.45259,-6.73306,-0.0,5.0,5.0,0.0,0.0,0.0,0.0,0.0,0.0,1.25,1.25,0.0,0.0,34.37
3.19,-7.43214,7.46053,-34.58102,34.58102,-4.63061,4.6483,-21.54581,0.0,0.0,-16.66667,-1.44707,1.45259,-6.73306,-0.0,5.0,5.0,0.0,0.0,0.0,0.0,0.0,0.0,1.25,1.25,0.0,0.0,34.58
3.2,-7.47859,7.50715,-34.79715,34.79715,-4.64508,4.66283,-21.61314,0.0,0.0,-16.66667,-1.44707,1.45259,-6.73306,-0.0,5.0,5.0,0.0,0.0,0.0,0.0,0.0,0.0,1.25,1.25,0.0,0.0,34.8
3.21,-7.52518,7.55393,-35.01396,35.01396,-4.65956,4.67735,-21.68047,0.0,0.0,-16.66667,-1.44707,1.45259,-6.73306,-0.0,5.0,5.0,0.0,0.0,0.0,0.0,0.0,0.0,1.25,1.25,0.0,0.0,35.01
3.22,-7.57192,7.60085,-35.23143,35.23143,-4.67403,4.69188,-21.7478,0.0,0.0,-16.66667,-1.44707,1.45259,-6.73306,-0.0,5.0,5.0,0.0,0.0,0.0,0.0,0.0,0.0,1.25,1.25,0.0,0.0,35.23
3.23,-7.61881,7.64791,-35.44959,35.44959,-4.6885,4.70641,-21.81513,0.0,0.0,-16.66667,-1.44707,1.45259,-6.73306,-0.0,5.0,5.0,0.0,0.0,0.0,0.0,0.0,0.0,1.25,1.25,0.0,0.0,35.45
3.24,-7.66584,7.69512,-35.66841,35.66841,-4.70297,4.72093,-21.88246,0.0,0.0,-16.66667,-1.44707,1.45259,-6.73306,-0.0,5.0,5.0,0.0,0.0,0.0,0.0,0.0,0.0,1.25,1.25,0.0,0.0,35.67
3.25,-7.71301,7.74247,-35.88791,35.88791,-4.71744,4.73546,-21.94979,0.0,0.0,-16.66667,-1.44707,1.45259,-6.73306,-0.0,5.0,5.0,0.0,0.0,0.0,0.0,0.0,0.0,1.25,1.25,0.0,0.0,35.89
3.26,-7.76033,7.78997,-36.10808,36.10808,-4.73191,4.74998,-22.01712,0.0,0.0,-16.66667,-1.44707,1.45259,-6.73306,-0.0,5.0,5.0,0.0,0.0,0.0,0.0,0.0,0.0,1.25,1.25,0.0,0.0,36.11
3.27,-7.80779,7.83762,-36.32892,36.32892,-4.74638,4.76451,-22.08445,0.0,0.0,-16.66667,-1.44707,1.45259,-6.73306,-0.0,5.0,5.0,0.0,0.0,0.0,0.0,0.0,0.0,1.25,1.25,0.0,0.0,36.33
3.28,-7.8554,7.88541,-36.55044,36.55044,-4.76085,4.77904,-22.15178,0.0,0.0,-16.66667,-1.44707,1.45259,-6.73306,-0.0,5.0,5.0,0.0,0.0,0.0,0.0,0.0,0.0,1.25,1.25,0.0,0.0,36.55
3.29,-7.90316,7.93334,-36.77263,36.77263,-4.77532,4.79356,-22.21911,0.0,0.0,-16.66667,-1.44707,1.45259,-6.73306,-0.0,5.0,5.0,0.0,0.0,0.0,0.0,0.0,0.0,1.25,1.25,0.0,0.0,36.77
3.3,-7.95105,7.98143,-36.9955,36.9955,-4.78979,4.80809,-22.28644,0.0,0.0,-16.66667,-1.44707,1.45259,-6.73306,-0.0,5.0,5.0,0.0,0.0,0.0,0.0,0.0,0.0,1.25,1.25,0.0,0.0,37.0
3.31,-7.9991,8.02965,-37.21904,37.21904,-4.80426,4.82261,-22.35378,0.0,0.0,-16.66667,-1.44707,1.45259,-6.73306,-0.0,5.0,5.0,0.0,0.0,0.0,0.0,0.0,0.0,1.25,1.25,0.0,0.0,37.22
3.32,-8.04728,8.07802,-37.44325,37.44325,-4.81873,4.83714,-22.42111,0.0,0.0,-16.66667,-1.44707,1.45259,-6.73306,-0.0,5.0,5.0,0.0,0.0,0.0,0.0,0.0,0.0,1.25,1.25,0.0,0.0,37.44
3.33,-8.09562,8.12654,-37.66813,37.66813,-4.8332,4.85167,-22.48844,0.0,0.0,-16.66667,-1.44707,1.45259,-6.73306,-0.0,5.0,5.0,0.0,0.0,0.0,0.0,0.0,0.0,1.25,1.25,0.0,0.0,37.67
3.34,-8.14409,8.1752,-37.89369,37.89369,-4.84767,4.86619,-22.55577,0.0,0.0,-16.66667,-1.44707,1.45259,-6.73306,-0.0,5.0,5.0,0.0,0.0,0.0,0.0,0.0,0.0,1.25,1.25,0.0,0.0,37.89
3.35,-8.19271,8.22401,-38.11992,38.11992,-4.86214,4.88072,-22.6231,0.0,0.0,-16.66667,-1.44707,1.45259,-6.73306,-0.0,5.0,5.0,0.0,0.0,0.0,0.0,0.0,0.0,1.25,1.25,0.0,0.0,38.12
3.36,-8.24148,8.27296,-38.34682,38.34682,-4.87662,4.89524,-22.69043,0.0,0.0,-16.66667,-1.44707,1.45259,-6.73306,-0.0,5.0,5.0,0.0,0.0,0.0,0.0,0.0,0.0,1.25,1.25,0.0,0.0,38.35
3.37,-8.29039,8.32206,-38.5744,38.5744,-4.89109,4.90977,-22.75776,0.0,0.0,-16.66667,-1.44707,1.45259,-6.73306,-0.0,5.0,5.0,0.0,0.0,0.0,0.0,0.0,0.0,1.25,1.25,0.0,0.0,38.57
3.38,-8.33945,8.3713,-38.80265,38.80265,-4.90556,4.9243,-22.82509,0.0,0.0,-16.66667,-1.44707,1.45259,-6.73306,-0.0,5.0,5.0,0.0,0.0,0.0,0.0,0.0,0.0,1.25,1.25,0.0,0.0,38.8
3.39,-8.38865,8.42069,-39.03158,39.03158,-4.92003,4.93882,-22.89242,0.0,0.0,-16.66667,-1.44707,1.45259,-6.73306,-0.0,5.0,5.0,0.0,0.0,0.0,0.0,0.0,0.0,1.25,1.25,0.0,0.0,39.03
3.4,-8.43799,8.47022,-39.26117,39.26117,-4.9345,4.95335,-22.95975,0.0,0.0,-16.66667,-1.44707,1.45259,-6.73306,-0.0,5.0,5.0,0.0,0.0,0.0,0.0,0.0,0.0,1.25,1.25,0.0,0.0,39.26
3.41,-8.48748,8.5199,-39.49145,39.49145,-4.94897,4.96787,-23.02708,0.0,0.0,-16.66667,-1.44707,1.45259,-6.73306,-0.0,5.0,5.0,0.0,0.0,0.0,0.0,0.0,0.0,1.25,1.25,0.0,0.0,39.49
3.42,-8.53712,8.56973,-39.72239,39.72239,-4.96344,4.9824,-23.09441,0.0,0.0,-16.66667,-1.44707,1.45259,-6.73306,-0.0,5.0,5.0,0.0,0.0,0.0,0.0,0.0,0.0,1.25,1.25,0.0,0.0,39.72
3.43,-8.5869,8.6197,-39.95401,39.95401,-4.97791,4.99693,-23.16174,0.0,0.0,-16.66667,-1.44707,1.45259,-6.73306,-0.0,5.0,5.0,0.0,0.0,0.0,0.0,0.0,0.0,1.25,1.25,0.0,0.0,39.95
3.44,-8.63682,8.66981,-40.1863,40.1863,-4.99238,5.01145,-23.22907,0.0,0.0,-16.66667,-1.44707,1.45259,-6.73306,-0.0,5.0,5.0,0.0,0.0,0.0,0.0,0.0,0.0,1.25,1.25,0.0,0.0,40.19
3.45,-8.68689,8.72007,-40.41926,40.41926,-5.00685,5.02598,-23.2964,0.0,0.0,-16.66667,-1.44707,1.45259,-6.73306,-0.0,5.0,5.0,0.0,0.0,0.0,0.0,0.0,0.0,1.25,1.25,0.0,0.0,40.42
3.46,-8.7371,8.77048,-40.6529,40.6529,-5.02132,5.0405,-23.36373,0.0,0.0,-16.66667,-1.44707,1.45259,-6.73306,-0.0,5.0,5.0,0.0,0.0,0.0,0.0,0.0,0.0,1.25,1.25,0.0,0.0,40.65
3.47,-8.78746,8.82103,-40.88721,40.88721,-5.03579,5.05503,-23.43107,0.0,0.0,-16.66667,-1.44707,1.45259,-6.73306,-0.0,5.0,5.0,0.0,0.0,0.0,0.0,0.0,0.0,1.25,1.25,0.0,0.0,40.89
3.48,-8.83796,8.87172,-41.12219,41.12219,-5.05026,5.06955,-23.4984,0.0,0.0,-16.66667,-1.44707,1.45259,-6.73306,-0.0,5.0,5.0,0.0,0.0,0.0,0.0,0.0,0.0,1.25,1.25,0.0,0.0,41.12
3.49,-8.88861,8.92256,-41.35785,41.35785,-5.06473,5.08408,-23.56573,0.0,0.0,-16.66667,-1.44707,1.45259,-6.73306,-0.0,5.0,5.0,0.0,0.0,0.0,0.0,0.0,0.0,1.25,1.25,0.0,0.0,41.36
3.5,-8.9394,8.97355,-41.59418,41.59418,-5.0792,5.09861,-23.63306,0.0,0.0,-16.66667,-1.44707,1.45259,-6.73306,-0.0,5.0,5.0,0.0,0.0,0.0,0.0,0.0,0.0,1.25,1.25,0.0,0.0,41.59
